{
  "source": "https://www.sunriseco-op.com/locations",
  "scraped": "2026-04-11",
  "locations": [
    {
      "company": "Sunrise Cooperative",
      "name": "Fremont Corporate Office",
      "street": "",
      "street2": "",
      "city": "Fremont",
      "state": "Ohio",
      "zip": "",
      "phone": "419-332-6468",
      "lat": "41.356542",
      "lng": "-83.138119",
      "details_url": "https://www.sunriseco-op.com/locations/fremont-corporate-office"
    },
    {
      "company": "Sunrise Cooperative",
      "name": "Attica Agronomy",
      "street": "",
      "street2": "",
      "city": "Attica",
      "state": "Ohio",
      "zip": "",
      "phone": "419-426-4343",
      "lat": "41.064778",
      "lng": "-82.887686",
      "details_url": "https://www.sunriseco-op.com/locations/attica-agronomy-feed"
    },
    {
      "company": "Sunrise Cooperative",
      "name": "Botkins Grain & Agronomy Hub",
      "street": "",
      "street2": "",
      "city": "Botkins",
      "state": "Ohio",
      "zip": "",
      "phone": "937.693.2043",
      "lat": "40.469577",
      "lng": "-84.186377",
      "details_url": "https://www.sunriseco-op.com/locations/botkins-grain-agronomy-hub"
    },
    {
      "company": "Sunrise Cooperative",
      "name": "Bucyrus Energy",
      "street": "",
      "street2": "",
      "city": "Bucyrus",
      "state": "Ohio",
      "zip": "",
      "phone": "",
      "lat": "40.825504",
      "lng": "-82.957764",
      "details_url": "https://www.sunriseco-op.com/locations/bucyrus"
    },
    {
      "company": "Sunrise Cooperative",
      "name": "Clarksfield Grain",
      "street": "",
      "street2": "",
      "city": "Wakeman",
      "state": "Ohio",
      "zip": "",
      "phone": "419-929-1568",
      "lat": "41.192041",
      "lng": "-82.429986",
      "details_url": "https://www.sunriseco-op.com/locations/clarksfield-grain-feed"
    },
    {
      "company": "Sunrise Cooperative",
      "name": "Clyde Grain",
      "street": "",
      "street2": "",
      "city": "Clyde",
      "state": "Ohio",
      "zip": "",
      "phone": "419-547-9588",
      "lat": "41.314196",
      "lng": "-82.96327",
      "details_url": "https://www.sunriseco-op.com/locations/clyde-grain"
    },
    {
      "company": "Sunrise Cooperative",
      "name": "Crestline Agronomy",
      "street": "",
      "street2": "",
      "city": "Crestline",
      "state": "Ohio",
      "zip": "",
      "phone": "419-683-7340",
      "lat": "40.7841088",
      "lng": "-82.7862817",
      "details_url": "https://www.sunriseco-op.com/locations/crestline-agronomy"
    },
    {
      "company": "Sunrise Cooperative",
      "name": "Crestline Grain",
      "street": "",
      "street2": "",
      "city": "Galion",
      "state": "Ohio",
      "zip": "",
      "phone": "419-683-4600",
      "lat": "40.7841096",
      "lng": "-82.7840672",
      "details_url": "https://www.sunriseco-op.com/locations/crestline-grain"
    },
    {
      "company": "Sunrise Cooperative",
      "name": "Kettlersville Energy",
      "street": "",
      "street2": "",
      "city": "Kettlersville",
      "state": "Ohio",
      "zip": "",
      "phone": "419.628.2505",
      "lat": "40.4390104",
      "lng": "-84.2601361",
      "details_url": "https://www.sunriseco-op.com/locations/kettlersville-energy"
    },
    {
      "company": "Sunrise Cooperative",
      "name": "Monroeville Grain (Seasonal)",
      "street": "",
      "street2": "",
      "city": "Monroeville",
      "state": "Ohio",
      "zip": "",
      "phone": "419-465-2583",
      "lat": "41.246603",
      "lng": "-82.699419",
      "details_url": "https://www.sunriseco-op.com/locations/monroeville-grain-seasonal"
    },
    {
      "company": "Sunrise Cooperative",
      "name": "New Washington Grain (Seasonal)",
      "street": "",
      "street2": "",
      "city": "New Washington",
      "state": "Ohio",
      "zip": "",
      "phone": "419-492-2548",
      "lat": "40.958512",
      "lng": "-82.843284",
      "details_url": "https://www.sunriseco-op.com/locations/new-washington-grain-seasonal"
    },
    {
      "company": "Sunrise Cooperative",
      "name": "Norwalk Agronomy",
      "street": "",
      "street2": "",
      "city": "Norwalk",
      "state": "Ohio",
      "zip": "",
      "phone": "419-668-8115",
      "lat": "41.225196",
      "lng": "-82.53888",
      "details_url": "https://www.sunriseco-op.com/locations/norwalk-agronomy"
    },
    {
      "company": "Sunrise Cooperative",
      "name": "Osgood Agronomy & Grain",
      "street": "",
      "street2": "",
      "city": "Osgood",
      "state": "Ohio",
      "zip": "",
      "phone": "419-582-3502",
      "lat": "40.340112",
      "lng": "-84.492948",
      "details_url": "https://www.sunriseco-op.com/locations/osgood-agronomy-grain"
    },
    {
      "company": "Sunrise Cooperative",
      "name": "South Charleston Agronomy",
      "street": "",
      "street2": "",
      "city": "South Charleston",
      "state": "Ohio",
      "zip": "",
      "phone": "937-462-7411",
      "lat": "39.822259",
      "lng": "-83.610927",
      "details_url": "https://www.sunriseco-op.com/locations/south-charleston-agronomy-office"
    },
    {
      "company": "Sunrise Cooperative",
      "name": "Springfield Energy",
      "street": "",
      "street2": "",
      "city": "Springfield",
      "state": "Ohio",
      "zip": "",
      "phone": "1-800-331-0256",
      "lat": "39.931904",
      "lng": "-83.779082",
      "details_url": "https://www.sunriseco-op.com/locations/springfield"
    },
    {
      "company": "Sunrise Cooperative",
      "name": "Starbuck Agronomy & Energy",
      "street": "",
      "street2": "",
      "city": "Wilmington",
      "state": "Ohio",
      "zip": "",
      "phone": "937-382-7555",
      "lat": "39.461216",
      "lng": "-83.767636",
      "details_url": "https://www.sunriseco-op.com/locations/starbuck-agronomy"
    },
    {
      "company": "Sunrise Cooperative",
      "name": "Uniopolis Agronomy & Grain",
      "street": "",
      "street2": "",
      "city": "Uniopolis",
      "state": "Ohio",
      "zip": "",
      "phone": "419-568-2467",
      "lat": "40.601759",
      "lng": "-84.084383",
      "details_url": "https://www.sunriseco-op.com/locations/uniopolis-agronomy-grain"
    }
  ]
}