{
  "source": "suburbanpropane.com",
  "scraped": "2026-04-11",
  "method": "locations-sitemap.xml + JSON-LD",
  "count": 774,
  "locations": [
    {
      "source_url": "https://www.suburbanpropane.com/locations/sarasota-fl/",
      "name": "Suburban Propane",
      "street": "6991 15th St E",
      "city": "Sarasota",
      "state": "FL",
      "zip": "34243",
      "phone": "9417551531",
      "lat": "27.4167137",
      "lng": "-82.5441603"
    },
    {
      "source_url": "https://www.suburbanpropane.com/locations/clearwater-fl/",
      "name": "Suburban Propane",
      "street": "775 Belleair Rd",
      "city": "Clearwater",
      "state": "FL",
      "zip": "33756",
      "phone": "7275841127",
      "lat": "27.9383783",
      "lng": "-82.7945139"
    },
    {
      "source_url": "https://www.suburbanpropane.com/locations/timmonsville-sc/",
      "name": "Suburban Propane",
      "street": "701 W Smith St",
      "city": "Timmonsville",
      "state": "SC",
      "zip": "29161",
      "phone": "8433462311",
      "lat": "34.1262314",
      "lng": "-79.950157"
    },
    {
      "source_url": "https://www.suburbanpropane.com/locations/greenville-sc/",
      "name": "Suburban Propane",
      "street": "2804 White Horse Rd",
      "city": "Greenville",
      "state": "SC",
      "zip": "29611",
      "phone": "8642693081",
      "lat": "34.8076284",
      "lng": "-82.4340783"
    },
    {
      "source_url": "https://www.suburbanpropane.com/locations/tampa-fl/",
      "name": "Suburban Propane",
      "street": "5618 E Powhatan Ave",
      "city": "Tampa",
      "state": "FL",
      "zip": "33610",
      "phone": "8136264157",
      "lat": "27.9996578",
      "lng": "-82.3911621"
    },
    {
      "source_url": "https://www.suburbanpropane.com/locations/chapin-sc/",
      "name": "Suburban Propane",
      "street": "317 Chapin Rd",
      "city": "Chapin",
      "state": "SC",
      "zip": "29036",
      "phone": "8033458945",
      "lat": "34.1395926",
      "lng": "-81.3195805"
    },
    {
      "source_url": "https://www.suburbanpropane.com/locations/wildwood-fl/",
      "name": "Suburban Propane",
      "street": "412 S Main St",
      "city": "Wildwood",
      "state": "FL",
      "zip": "34785",
      "phone": "3527482101",
      "lat": "28.855848",
      "lng": "-82.0438849"
    },
    {
      "source_url": "https://www.suburbanpropane.com/locations/tallahassee-fl/",
      "name": "Suburban Propane",
      "street": "4420 Woodville Hwy",
      "city": "Tallahassee",
      "state": "FL",
      "zip": "32305",
      "phone": "8505763164",
      "lat": "30.3783643",
      "lng": "-84.272486"
    },
    {
      "source_url": "https://www.suburbanpropane.com/locations/asheville-nc/",
      "name": "Suburban Propane",
      "street": "325 Aiken Road",
      "city": "Asheville",
      "state": "NC",
      "zip": "28804",
      "phone": "8282524733",
      "lat": "35.6852046",
      "lng": "-82.5779706"
    },
    {
      "source_url": "https://www.suburbanpropane.com/locations/charlotte-nc/",
      "name": "Suburban Propane",
      "street": "1333 Berryhill Rd",
      "city": "Charlotte",
      "state": "NC",
      "zip": "28208",
      "phone": "7043751721",
      "lat": "35.2340643",
      "lng": "-80.8757272"
    },
    {
      "source_url": "https://www.suburbanpropane.com/locations/athens-tn/",
      "name": "Suburban Propane",
      "street": "1147 Congress Pkwy N",
      "city": "Athens",
      "state": "TN",
      "zip": "37303",
      "phone": "4237455143",
      "lat": "35.4885235",
      "lng": "-84.5808852"
    },
    {
      "source_url": "https://www.suburbanpropane.com/locations/goshen-oh/",
      "name": "Suburban Propane",
      "street": "1980 State Route 28 And Cozaddale Rd",
      "city": "Goshen",
      "state": "OH",
      "zip": "45122",
      "phone": "5137223000",
      "lat": "39.2372725",
      "lng": "-84.1540617"
    },
    {
      "source_url": "https://www.suburbanpropane.com/locations/dalton-ga/",
      "name": "Suburban Propane",
      "street": "1902 Abutment Rd",
      "city": "Dalton",
      "state": "GA",
      "zip": "30721",
      "phone": "7062772421",
      "lat": "34.732745",
      "lng": "-84.9628336"
    },
    {
      "source_url": "https://www.suburbanpropane.com/locations/enon-oh/",
      "name": "Suburban Propane",
      "street": "2929 Enon Rd",
      "city": "Enon",
      "state": "OH",
      "zip": "45323",
      "phone": "9378647327",
      "lat": "39.8831341",
      "lng": "-83.9372307"
    },
    {
      "source_url": "https://www.suburbanpropane.com/locations/clarksville-tn-84/",
      "name": "Suburban Propane",
      "street": "420 Kelly Ln",
      "city": "Clarksville",
      "state": "TN",
      "zip": "37040",
      "phone": "9316473365",
      "lat": "36.5158051",
      "lng": "-87.3319011"
    },
    {
      "source_url": "https://www.suburbanpropane.com/locations/williamstown-ky/",
      "name": "Suburban Propane",
      "street": "701 S Main St",
      "city": "Williamstown",
      "state": "KY",
      "zip": "41097",
      "phone": "8598235551",
      "lat": "38.6188",
      "lng": "-84.571202"
    },
    {
      "source_url": "https://www.suburbanpropane.com/locations/yadkinville-nc/",
      "name": "Suburban Propane",
      "street": "740 N State St",
      "city": "Yadkinville",
      "state": "NC",
      "zip": "27055",
      "phone": "3366797000",
      "lat": "36.1421225",
      "lng": "-80.6636654"
    },
    {
      "source_url": "https://www.suburbanpropane.com/locations/nashville-tn/",
      "name": "Suburban Propane",
      "street": "1917 Hackworth St",
      "city": "Nashville",
      "state": "TN",
      "zip": "37210",
      "phone": "6152567176",
      "lat": "36.1359735",
      "lng": "-86.7506926"
    },
    {
      "source_url": "https://www.suburbanpropane.com/locations/norton-va/",
      "name": "Suburban Propane",
      "street": "5501 Industrial Park Rd",
      "city": "Norton",
      "state": "VA",
      "zip": "24273",
      "phone": "2766794422",
      "lat": "36.9625533",
      "lng": "-82.6070815"
    },
    {
      "source_url": "https://www.suburbanpropane.com/locations/easton-md/",
      "name": "Suburban Propane",
      "street": "1080 N Washington St",
      "city": "Easton",
      "state": "MD",
      "zip": "21601",
      "phone": "4108220525",
      "lat": "38.7969898",
      "lng": "-76.0619226"
    },
    {
      "source_url": "https://www.suburbanpropane.com/locations/millsboro-de/",
      "name": "Suburban Propane",
      "street": "28687 Dupont Blvd",
      "city": "Millsboro",
      "state": "DE",
      "zip": "19966",
      "phone": "3029349241",
      "lat": "38.5729629",
      "lng": "-75.2833147"
    },
    {
      "source_url": "https://www.suburbanpropane.com/locations/meadville-pa/",
      "name": "Suburban Propane",
      "street": "10974 Murray Road Suite C",
      "city": "Meadville",
      "state": "PA",
      "zip": "16335",
      "phone": "8143331113",
      "lat": "",
      "lng": ""
    },
    {
      "source_url": "https://www.suburbanpropane.com/locations/waldorf-md/",
      "name": "Suburban Propane",
      "street": "3230 Old Washington Rd",
      "city": "Waldorf",
      "state": "MD",
      "zip": "20602",
      "phone": "3016457066",
      "lat": "38.6225808",
      "lng": "-76.9097899"
    },
    {
      "source_url": "https://www.suburbanpropane.com/locations/hollywood-md/",
      "name": "Suburban Propane",
      "street": "43890 Airport View Dr",
      "city": "Hollywood",
      "state": "MD",
      "zip": "20636",
      "phone": "3013738600",
      "lat": "38.3193801",
      "lng": "-76.5576285"
    },
    {
      "source_url": "https://www.suburbanpropane.com/locations/rockville-md/",
      "name": "Suburban Propane",
      "street": "31 Derwood Cir",
      "city": "Rockville",
      "state": "MD",
      "zip": "20850",
      "phone": "3012510606",
      "lat": "39.1025932",
      "lng": "-77.1542796"
    },
    {
      "source_url": "https://www.suburbanpropane.com/locations/reisterstown-md/",
      "name": "Suburban Propane",
      "street": "13944 Old Hanover Rd",
      "city": "Reisterstown",
      "state": "MD",
      "zip": "21136",
      "phone": "4108331400",
      "lat": "39.507779",
      "lng": "-76.8299753"
    },
    {
      "source_url": "https://www.suburbanpropane.com/locations/somerset-pa/",
      "name": "Suburban Propane",
      "street": "10777 Somerset Pike",
      "city": "Somerset",
      "state": "PA",
      "zip": "15501",
      "phone": "8144457929",
      "lat": "40.0672018",
      "lng": "-79.0778778"
    },
    {
      "source_url": "https://www.suburbanpropane.com/locations/howell-nj/",
      "name": "Suburban Propane",
      "street": "2061 US Highway 9 N",
      "city": "Howell",
      "state": "NJ",
      "zip": "07731",
      "phone": "7324622073",
      "lat": "40.1846024",
      "lng": "-74.2482408"
    },
    {
      "source_url": "https://www.suburbanpropane.com/locations/lancaster-pa/",
      "name": "Suburban Propane",
      "street": "2440 Dairy Rd",
      "city": "Lancaster",
      "state": "PA",
      "zip": "17601",
      "phone": "7178982267",
      "lat": "40.0838718",
      "lng": "-76.3710055"
    },
    {
      "source_url": "https://www.suburbanpropane.com/locations/exton-pa/",
      "name": "Suburban Propane",
      "street": "301 Old Mill Ln",
      "city": "Exton",
      "state": "PA",
      "zip": "19341",
      "phone": "6103636565",
      "lat": "40.0144328",
      "lng": "-75.648948"
    },
    {
      "source_url": "https://www.suburbanpropane.com/locations/chambersburg-pa/",
      "name": "Suburban Propane",
      "street": "1917 Philadelphia Ave",
      "city": "Chambersburg",
      "state": "PA",
      "zip": "17201",
      "phone": "7172647184",
      "lat": "39.9588032",
      "lng": "-77.6430843"
    },
    {
      "source_url": "https://www.suburbanpropane.com/locations/temple-pa/",
      "name": "Suburban Propane",
      "street": "5365 Allentown Pike",
      "city": "Temple",
      "state": "PA",
      "zip": "19560",
      "phone": "6109294729",
      "lat": "40.4150361",
      "lng": "-75.9193939"
    },
    {
      "source_url": "https://www.suburbanpropane.com/locations/york-pa/",
      "name": "Suburban Propane",
      "street": "2600 W Market St",
      "city": "York",
      "state": "PA",
      "zip": "17404",
      "phone": "7177929705",
      "lat": "39.9489222",
      "lng": "-76.7787048"
    },
    {
      "source_url": "https://www.suburbanpropane.com/locations/washington-nj/",
      "name": "Suburban Propane",
      "street": "245 Route 31 North",
      "city": "Washington",
      "state": "NJ",
      "zip": "07882",
      "phone": "9086891280",
      "lat": "40.774147",
      "lng": "-74.978895"
    },
    {
      "source_url": "https://www.suburbanpropane.com/locations/malone-ny/",
      "name": "Suburban Propane",
      "street": "688 E Main St",
      "city": "Malone",
      "state": "NY",
      "zip": "12953",
      "phone": "5184832710",
      "lat": "44.850885",
      "lng": "-74.271384"
    },
    {
      "source_url": "https://www.suburbanpropane.com/locations/chester-ny/",
      "name": "Suburban Propane",
      "street": "1939 Kings Hwy",
      "city": "Chester",
      "state": "NY",
      "zip": "10918",
      "phone": "8454692171",
      "lat": "41.3493246",
      "lng": "-74.2754268"
    },
    {
      "source_url": "https://www.suburbanpropane.com/locations/rutland-vt/",
      "name": "Suburban Propane",
      "street": "289 Randbury Rd",
      "city": "Rutland",
      "state": "VT",
      "zip": "05701",
      "phone": "8027752357",
      "lat": "43.5873733",
      "lng": "-72.9741759"
    },
    {
      "source_url": "https://www.suburbanpropane.com/locations/uncasville-ct/",
      "name": "Suburban Propane",
      "street": "262 Gallivan Lane",
      "city": "Uncasville",
      "state": "CT",
      "zip": "06382",
      "phone": "8608485510",
      "lat": "41.486256",
      "lng": "-72.1213033"
    },
    {
      "source_url": "https://www.suburbanpropane.com/locations/brewster-ny/",
      "name": "Suburban Propane",
      "street": "2544 Carmel Ave",
      "city": "Brewster",
      "state": "NY",
      "zip": "10509",
      "phone": "8452793736",
      "lat": "41.3994964",
      "lng": "-73.629774"
    },
    {
      "source_url": "https://www.suburbanpropane.com/locations/coventry-ri/",
      "name": "Suburban Propane",
      "street": "2030 Flat River Rd",
      "city": "Coventry",
      "state": "RI",
      "zip": "02816",
      "phone": "4013970322",
      "lat": "41.7031493",
      "lng": "-71.6082559"
    },
    {
      "source_url": "https://www.suburbanpropane.com/locations/milford-nh/",
      "name": "Suburban Propane",
      "street": "8 Hitchiner Way",
      "city": "Milford",
      "state": "NH",
      "zip": "03055",
      "phone": "6036732903",
      "lat": "42.8417884",
      "lng": "-71.7022414"
    },
    {
      "source_url": "https://www.suburbanpropane.com/locations/marlborough-ma/",
      "name": "Suburban Propane",
      "street": "100 Cedar Hill St",
      "city": "Marlborough",
      "state": "MA",
      "zip": "01752",
      "phone": "5084811000",
      "lat": "42.3170402",
      "lng": "-71.5819925"
    },
    {
      "source_url": "https://www.suburbanpropane.com/locations/bennington-vt/",
      "name": "Suburban Propane",
      "street": "473 Morse Rd",
      "city": "Bennington",
      "state": "VT",
      "zip": "05201",
      "phone": "8024422745",
      "lat": "42.8976846",
      "lng": "-73.2151147"
    },
    {
      "source_url": "https://www.suburbanpropane.com/locations/lebanon-nh/",
      "name": "Suburban Propane",
      "street": "424 Miracle Mile",
      "city": "Lebanon",
      "state": "NH",
      "zip": "03766",
      "phone": "6034484708",
      "lat": "43.6361787",
      "lng": "-72.2925884"
    },
    {
      "source_url": "https://www.suburbanpropane.com/locations/watertown-ny/",
      "name": "Suburban Propane",
      "street": "110 Main Street",
      "city": "Glen Park",
      "state": "NY",
      "zip": "13601",
      "phone": "3157882050",
      "lat": "44.0005979",
      "lng": "-75.939357"
    },
    {
      "source_url": "https://www.suburbanpropane.com/locations/auburn-ny/",
      "name": "Suburban Propane",
      "street": "84 York St",
      "city": "Auburn",
      "state": "NY",
      "zip": "13021",
      "phone": "3152553301",
      "lat": "42.9486822",
      "lng": "-76.5753091"
    },
    {
      "source_url": "https://www.suburbanpropane.com/locations/penn-yan-ny-265/",
      "name": "Suburban Propane",
      "street": "Milo Mill Road",
      "city": "Penn Yan",
      "state": "NY",
      "zip": "14527",
      "phone": "3152553301",
      "lat": "42.65625",
      "lng": "-77.027011"
    },
    {
      "source_url": "https://www.suburbanpropane.com/locations/cortland-ny/",
      "name": "Suburban Propane",
      "street": "3833 US Route 11",
      "city": "Cortland",
      "state": "NY",
      "zip": "13045",
      "phone": "6077538248",
      "lat": "42.5920409",
      "lng": "-76.1390165"
    },
    {
      "source_url": "https://www.suburbanpropane.com/locations/horseheads-ny/",
      "name": "Suburban Propane",
      "street": "963 Chemung St",
      "city": "Horseheads",
      "state": "NY",
      "zip": "14845",
      "phone": "6077394141",
      "lat": "42.1573449",
      "lng": "-76.8378262"
    },
    {
      "source_url": "https://www.suburbanpropane.com/locations/phoenix-ny/",
      "name": "Suburban Propane",
      "street": "56 County Route 57A",
      "city": "Phoenix",
      "state": "NY",
      "zip": "13135",
      "phone": "3156567215",
      "lat": "43.221397",
      "lng": "-76.28153"
    },
    {
      "source_url": "https://www.suburbanpropane.com/locations/bremerton-wa/",
      "name": "Suburban Propane",
      "street": "3515 Chico Way NW",
      "city": "Bremerton",
      "state": "WA",
      "zip": "98312",
      "phone": "3603777647",
      "lat": "47.5950487",
      "lng": "-122.7098559"
    },
    {
      "source_url": "https://www.suburbanpropane.com/locations/boise-id/",
      "name": "Suburban Propane",
      "street": "8550 Franklin Rd",
      "city": "Boise",
      "state": "ID",
      "zip": "83709",
      "phone": "2083754254",
      "lat": "43.6052217",
      "lng": "-116.2889805"
    },
    {
      "source_url": "https://www.suburbanpropane.com/locations/anchorage-ak/",
      "name": "Suburban Propane",
      "street": "1200 E Whitney Rd",
      "city": "Anchorage",
      "state": "AK",
      "zip": "99501",
      "phone": "9072727581",
      "lat": "61.2250658",
      "lng": "-149.8609435"
    },
    {
      "source_url": "https://www.suburbanpropane.com/locations/laramie-wy/",
      "name": "Suburban Propane",
      "street": "1412 S 2nd St",
      "city": "Laramie",
      "state": "WY",
      "zip": "82070",
      "phone": "3077457644",
      "lat": "41.3002733",
      "lng": "-105.5962857"
    },
    {
      "source_url": "https://www.suburbanpropane.com/locations/driggs-id/",
      "name": "Suburban Propane",
      "street": "370 S Main St",
      "city": "Driggs",
      "state": "ID",
      "zip": "83422",
      "phone": "2083542274",
      "lat": "43.7159911",
      "lng": "-111.1114839"
    },
    {
      "source_url": "https://www.suburbanpropane.com/locations/eugene-or/",
      "name": "Suburban Propane",
      "street": "110 Highway 99 N",
      "city": "Eugene",
      "state": "OR",
      "zip": "97402",
      "phone": "5413442283",
      "lat": "44.062841",
      "lng": "-123.1364673"
    },
    {
      "source_url": "https://www.suburbanpropane.com/locations/jackson-wy/",
      "name": "Suburban Propane",
      "street": "1355 Gregory Ln",
      "city": "Jackson",
      "state": "WY",
      "zip": "83001",
      "phone": "3077333628",
      "lat": "43.4605043",
      "lng": "-110.7979449"
    },
    {
      "source_url": "https://www.suburbanpropane.com/locations/pocatello-id/",
      "name": "Suburban Propane",
      "street": "2868 Garrett Way",
      "city": "Pocatello",
      "state": "ID",
      "zip": "83201",
      "phone": "2082321723",
      "lat": "42.8885892",
      "lng": "-112.4726319"
    },
    {
      "source_url": "https://www.suburbanpropane.com/locations/medford-or/",
      "name": "Suburban Propane",
      "street": "2175 Joseph St",
      "city": "Medford",
      "state": "OR",
      "zip": "97501",
      "phone": "5417725101",
      "lat": "42.3495442",
      "lng": "-122.9027531"
    },
    {
      "source_url": "https://www.suburbanpropane.com/locations/yreka-ca/",
      "name": "Suburban Propane",
      "street": "212 State St",
      "city": "Yreka",
      "state": "CA",
      "zip": "96097",
      "phone": "5308423575",
      "lat": "41.7258925",
      "lng": "-122.6345283"
    },
    {
      "source_url": "https://www.suburbanpropane.com/locations/turlock-ca/",
      "name": "Suburban Propane",
      "street": "4625 N Golden State Blvd",
      "city": "Turlock",
      "state": "CA",
      "zip": "95382",
      "phone": "2096349066",
      "lat": "37.5358043",
      "lng": "-120.8904203"
    },
    {
      "source_url": "https://www.suburbanpropane.com/locations/sparks-nv/",
      "name": "Suburban Propane",
      "street": "400 Wolverine Way Ste A",
      "city": "Sparks",
      "state": "NV",
      "zip": "89431",
      "phone": "7753598383",
      "lat": "39.5292701",
      "lng": "-119.7490115"
    },
    {
      "source_url": "https://www.suburbanpropane.com/locations/placerville-ca/",
      "name": "Suburban Propane",
      "street": "386 Placerville Dr",
      "city": "Placerville",
      "state": "CA",
      "zip": "95667",
      "phone": "5306224664",
      "lat": "38.7318563",
      "lng": "-120.8325923"
    },
    {
      "source_url": "https://www.suburbanpropane.com/locations/jamestown-ca/",
      "name": "Suburban Propane",
      "street": "18535 5th Ave",
      "city": "Jamestown",
      "state": "CA",
      "zip": "95327",
      "phone": "2099845283",
      "lat": "37.9593793",
      "lng": "-120.4178705"
    },
    {
      "source_url": "https://www.suburbanpropane.com/locations/elko-nv/",
      "name": "Suburban Propane",
      "street": "1250 Lamoille Hwy Ste 309",
      "city": "Elko",
      "state": "NV",
      "zip": "89801",
      "phone": "7757383151",
      "lat": "40.8296164",
      "lng": "-115.7441521"
    },
    {
      "source_url": "https://www.suburbanpropane.com/locations/woodland-ca/",
      "name": "Suburban Propane",
      "street": "1980 E Main St",
      "city": "Woodland",
      "state": "CA",
      "zip": "95776",
      "phone": "5306629361",
      "lat": "38.676892",
      "lng": "-121.7317022"
    },
    {
      "source_url": "https://www.suburbanpropane.com/locations/ely-nv/",
      "name": "Suburban Propane",
      "street": "1700 E Aultman St",
      "city": "Ely",
      "state": "NV",
      "zip": "89301",
      "phone": "7752892901",
      "lat": "39.2516238",
      "lng": "-114.88057"
    },
    {
      "source_url": "https://www.suburbanpropane.com/locations/bakersfield-ca/",
      "name": "Suburban Propane",
      "street": "5700 S Union Ave",
      "city": "Bakersfield",
      "state": "CA",
      "zip": "93307",
      "phone": "6618314611",
      "lat": "35.3027463",
      "lng": "-119.0021867"
    },
    {
      "source_url": "https://www.suburbanpropane.com/locations/vista-ca/",
      "name": "Suburban Propane",
      "street": "2260 La Mirada Drive",
      "city": "Vista",
      "state": "CA",
      "zip": "92081",
      "phone": "7607370440",
      "lat": "33.1519955",
      "lng": "-117.2308094"
    },
    {
      "source_url": "https://www.suburbanpropane.com/locations/parker-az/",
      "name": "Suburban Propane",
      "street": "801 S California Ave",
      "city": "Parker",
      "state": "AZ",
      "zip": "85344",
      "phone": "9286695597",
      "lat": "34.1521696",
      "lng": "-114.2897797"
    },
    {
      "source_url": "https://www.suburbanpropane.com/locations/concord-ca/",
      "name": "Suburban Propane",
      "street": "1765 Arnold Industrial Way",
      "city": "Concord",
      "state": "CA",
      "zip": "94520",
      "phone": "9256865811",
      "lat": "38.0031982",
      "lng": "-122.0481913"
    },
    {
      "source_url": "https://www.suburbanpropane.com/locations/fresno-ca/",
      "name": "Suburban Propane",
      "street": "2874 S Cherry Ave",
      "city": "Fresno",
      "state": "CA",
      "zip": "93706",
      "phone": "5594862770",
      "lat": "36.6972692",
      "lng": "-119.7823451"
    },
    {
      "source_url": "https://www.suburbanpropane.com/locations/lancaster-ca/",
      "name": "Suburban Propane",
      "street": "46151 Sierra Hwy",
      "city": "Lancaster",
      "state": "CA",
      "zip": "93534",
      "phone": "6619425117",
      "lat": "34.7216909",
      "lng": "-118.1408632"
    },
    {
      "source_url": "https://www.suburbanpropane.com/locations/oakhurst-ca/",
      "name": "Suburban Propane",
      "street": "41441 Highway 41",
      "city": "Oakhurst",
      "state": "CA",
      "zip": "93644",
      "phone": "5595490533",
      "lat": "37.3510245",
      "lng": "-119.6420159"
    },
    {
      "source_url": "https://www.suburbanpropane.com/locations/marina-ca/",
      "name": "Suburban Propane",
      "street": "365 Reservation Rd",
      "city": "Marina",
      "state": "CA",
      "zip": "93933",
      "phone": "8313849262",
      "lat": "36.6821759",
      "lng": "-121.7873671"
    },
    {
      "source_url": "https://www.suburbanpropane.com/locations/marysville-wa/",
      "name": "Suburban Propane",
      "street": "12820 34th Ave NE",
      "city": "Marysville",
      "state": "WA",
      "zip": "98271",
      "phone": "3606591251",
      "lat": "48.1115114",
      "lng": "-122.1862141"
    },
    {
      "source_url": "https://www.suburbanpropane.com/locations/lakeport-ca/",
      "name": "Suburban Propane",
      "street": "2255 S Main St",
      "city": "Lakeport",
      "state": "CA",
      "zip": "95453",
      "phone": "7072635428",
      "lat": "39.0242928",
      "lng": "-122.9157007"
    },
    {
      "source_url": "https://www.suburbanpropane.com/locations/albany-ny/",
      "name": "Suburban Propane",
      "street": "76 Railroad Ave",
      "city": "Albany",
      "state": "NY",
      "zip": "12205",
      "phone": "5184893271",
      "lat": "42.6968394",
      "lng": "-73.8264333"
    },
    {
      "source_url": "https://www.suburbanpropane.com/locations/homer-ak/",
      "name": "Suburban Propane",
      "street": "60970 East End Rd",
      "city": "Homer",
      "state": "AK",
      "zip": "99603",
      "phone": "9072358565",
      "lat": "59.6661936",
      "lng": "-151.4597494"
    },
    {
      "source_url": "https://www.suburbanpropane.com/locations/lowville-ny-585/",
      "name": "Suburban Propane",
      "street": "7137 Utica Blvd",
      "city": "Lowville",
      "state": "NY",
      "zip": "13367",
      "phone": "3157882050",
      "lat": "43.7757603",
      "lng": "-75.4777314"
    },
    {
      "source_url": "https://www.suburbanpropane.com/locations/ridgeland-sc/",
      "name": "Suburban Propane",
      "street": "77 Hazzard Creek Village, Unit A",
      "city": "Ridgeland",
      "state": "SC",
      "zip": "29936",
      "phone": "8433104306",
      "lat": "32.3622129",
      "lng": "-80.872404"
    },
    {
      "source_url": "https://www.suburbanpropane.com/locations/miami-fl/",
      "name": "Suburban Propane",
      "street": "3800 NW 59th St",
      "city": "Miami",
      "state": "FL",
      "zip": "33142",
      "phone": "3056354427",
      "lat": "25.8276241",
      "lng": "-80.2577175"
    },
    {
      "source_url": "https://www.suburbanpropane.com/locations/morrisville-vt/",
      "name": "Suburban Propane",
      "street": "512 Brooklyn St",
      "city": "Morrisville",
      "state": "VT",
      "zip": "05661",
      "phone": "8028882345",
      "lat": "44.5698695",
      "lng": "-72.5965283"
    },
    {
      "source_url": "https://www.suburbanpropane.com/locations/fairfield-me/",
      "name": "Suburban Propane",
      "street": "368 Upper Main Street",
      "city": "Fairfield",
      "state": "ME",
      "zip": "04937",
      "phone": "2074534991",
      "lat": "44.6006641",
      "lng": "-69.5952197"
    },
    {
      "source_url": "https://www.suburbanpropane.com/locations/greenfield-ma/",
      "name": "Suburban Propane",
      "street": "334 Chapman St",
      "city": "Greenfield",
      "state": "MA",
      "zip": "01301",
      "phone": "4137733693",
      "lat": "42.6022863",
      "lng": "-72.604098"
    },
    {
      "source_url": "https://www.suburbanpropane.com/locations/telford-pa/",
      "name": "Suburban Propane",
      "street": "3115 State Rd",
      "city": "Telford",
      "state": "PA",
      "zip": "18969",
      "phone": "2152570131",
      "lat": "40.3379046",
      "lng": "-75.3234035"
    },
    {
      "source_url": "https://www.suburbanpropane.com/locations/watsontown-pa/",
      "name": "Suburban Propane",
      "street": "360 Suburban Way",
      "city": "Watsontown",
      "state": "PA",
      "zip": "17777",
      "phone": "5707428715",
      "lat": "41.0530813",
      "lng": "-76.8412132"
    },
    {
      "source_url": "https://www.suburbanpropane.com/locations/bridgehampton-ny/",
      "name": "Suburban Propane",
      "street": "279 Butter Lane",
      "city": "Bridgehampton",
      "state": "NY",
      "zip": "11932",
      "phone": "6315370930",
      "lat": "40.9416687",
      "lng": "-72.3072707"
    },
    {
      "source_url": "https://www.suburbanpropane.com/locations/linwood-mi/",
      "name": "Suburban Propane",
      "street": "382 S Huron Rd",
      "city": "Linwood",
      "state": "MI",
      "zip": "48634",
      "phone": "9896975761",
      "lat": "43.7272911",
      "lng": "-83.9741575"
    },
    {
      "source_url": "https://www.suburbanpropane.com/locations/roanoke-va/",
      "name": "Suburban Propane",
      "street": "5306 Peters Creek Rd Ste A",
      "city": "Roanoke",
      "state": "VA",
      "zip": "24019",
      "phone": "5407777928",
      "lat": "37.3337786",
      "lng": "-79.9774371"
    },
    {
      "source_url": "https://www.suburbanpropane.com/locations/millersville-md/",
      "name": "Suburban Propane",
      "street": "205 Najoles Rd",
      "city": "Millersville",
      "state": "MD",
      "zip": "21108",
      "phone": "4109879000",
      "lat": "39.0997259",
      "lng": "-76.6292743"
    },
    {
      "source_url": "https://www.suburbanpropane.com/locations/rolesville-nc/",
      "name": "Suburban Propane",
      "street": "600 S Main St Ste A",
      "city": "Rolesville",
      "state": "NC",
      "zip": "27571",
      "phone": "9195563143",
      "lat": "35.9124881",
      "lng": "-78.475553"
    },
    {
      "source_url": "https://www.suburbanpropane.com/locations/kissimmee-fl/",
      "name": "Suburban Propane",
      "street": "1200 E Carroll St",
      "city": "Kissimmee",
      "state": "FL",
      "zip": "34744",
      "phone": "4078473582",
      "lat": "28.3258071",
      "lng": "-81.3934382"
    },
    {
      "source_url": "https://www.suburbanpropane.com/locations/pensacola-fl/",
      "name": "Suburban Propane",
      "street": "9550 Pensacola Blvd",
      "city": "Pensacola",
      "state": "FL",
      "zip": "32534",
      "phone": "8504774733",
      "lat": "30.5367826",
      "lng": "-87.2780227"
    },
    {
      "source_url": "https://www.suburbanpropane.com/locations/huntsville-al/",
      "name": "Suburban Propane",
      "street": "6996 Memorial Pkwy NW",
      "city": "Huntsville",
      "state": "AL",
      "zip": "35810",
      "phone": "2568516067",
      "lat": "34.8006063",
      "lng": "-86.5736276"
    },
    {
      "source_url": "https://www.suburbanpropane.com/locations/jasper-al/",
      "name": "Suburban Propane",
      "street": "5000 Highway 78 E",
      "city": "Jasper",
      "state": "AL",
      "zip": "35501",
      "phone": "2053844554",
      "lat": "33.834663",
      "lng": "-87.2183517"
    },
    {
      "source_url": "https://www.suburbanpropane.com/locations/tupelo-ms/",
      "name": "Suburban Propane",
      "street": "2173 McCullough Blvd",
      "city": "Tupelo",
      "state": "MS",
      "zip": "38801",
      "phone": "6628420735",
      "lat": "34.2922699",
      "lng": "-88.7558073"
    },
    {
      "source_url": "https://www.suburbanpropane.com/locations/senatobia-ms/",
      "name": "Suburban Propane",
      "street": "5468 Highway 51 N",
      "city": "Senatobia",
      "state": "MS",
      "zip": "38668",
      "phone": "6625628286",
      "lat": "34.6333914",
      "lng": "-89.9681581"
    },
    {
      "source_url": "https://www.suburbanpropane.com/locations/malvern-ar/",
      "name": "Suburban Propane",
      "street": "1214 Martin Luther King Blvd",
      "city": "Malvern",
      "state": "AR",
      "zip": "72104",
      "phone": "5013323311",
      "lat": "34.3809434",
      "lng": "-92.8283414"
    },
    {
      "source_url": "https://www.suburbanpropane.com/locations/columbus-ms/",
      "name": "Suburban Propane",
      "street": "5234 Military Road",
      "city": "Columbus",
      "state": "MS",
      "zip": "39705",
      "phone": "6623283128",
      "lat": "33.5516627",
      "lng": "-88.3746353"
    },
    {
      "source_url": "https://www.suburbanpropane.com/locations/jeffersonville-in/",
      "name": "Suburban Propane",
      "street": "6101 Hamburg Pike",
      "city": "Jeffersonville",
      "state": "IN",
      "zip": "47130",
      "phone": "8122821311",
      "lat": "38.3517029",
      "lng": "-85.7446437"
    },
    {
      "source_url": "https://www.suburbanpropane.com/locations/nashville-in/",
      "name": "Suburban Propane",
      "street": "6088 State Road 46 E",
      "city": "Nashville",
      "state": "IN",
      "zip": "47448",
      "phone": "8129884503",
      "lat": "39.1923778",
      "lng": "-86.1517456"
    },
    {
      "source_url": "https://www.suburbanpropane.com/locations/roanoke-in/",
      "name": "Suburban Propane",
      "street": "10035 Lower Huntington Rd",
      "city": "Roanoke",
      "state": "IN",
      "zip": "46783",
      "phone": "2606729710",
      "lat": "40.9910361",
      "lng": "-85.2713747"
    },
    {
      "source_url": "https://www.suburbanpropane.com/locations/lawrence-in/",
      "name": "Suburban Propane",
      "street": "5010 N Post Rd",
      "city": "Lawrence",
      "state": "IN",
      "zip": "46226",
      "phone": "3178987212",
      "lat": "39.8458998",
      "lng": "-86.0113999"
    },
    {
      "source_url": "https://www.suburbanpropane.com/locations/columbus-oh/",
      "name": "Suburban Propane",
      "street": "2759 McKinley Ave",
      "city": "Columbus",
      "state": "OH",
      "zip": "43204",
      "phone": "6144876400",
      "lat": "39.9816591",
      "lng": "-83.0723303"
    },
    {
      "source_url": "https://www.suburbanpropane.com/locations/columbiana-oh/",
      "name": "Suburban Propane",
      "street": "2705 State Route 7",
      "city": "Columbiana",
      "state": "OH",
      "zip": "44408",
      "phone": "3304829206",
      "lat": "40.8610937",
      "lng": "-80.6517455"
    },
    {
      "source_url": "https://www.suburbanpropane.com/locations/findlay-oh/",
      "name": "Suburban Propane",
      "street": "9859 CR 313",
      "city": "Findlay",
      "state": "OH",
      "zip": "45840",
      "phone": "4194224373",
      "lat": "41.0462307",
      "lng": "-83.6561215"
    },
    {
      "source_url": "https://www.suburbanpropane.com/locations/hillsboro-oh/",
      "name": "Suburban Propane",
      "street": "746 N High St",
      "city": "Hillsboro",
      "state": "OH",
      "zip": "45133",
      "phone": "9373935366",
      "lat": "39.2122507",
      "lng": "-83.6086343"
    },
    {
      "source_url": "https://www.suburbanpropane.com/locations/wapakoneta-oh/",
      "name": "Suburban Propane",
      "street": "7985 County Road 33A",
      "city": "Wapakoneta",
      "state": "OH",
      "zip": "45895",
      "phone": "4198122890",
      "lat": "40.556411",
      "lng": "-84.299094"
    },
    {
      "source_url": "https://www.suburbanpropane.com/locations/coldwater-mi/",
      "name": "Suburban Propane",
      "street": "420 N Willowbrook Rd",
      "city": "Coldwater",
      "state": "MI",
      "zip": "49036",
      "phone": "5172791300",
      "lat": "41.9450903",
      "lng": "-84.9717169"
    },
    {
      "source_url": "https://www.suburbanpropane.com/locations/coopersville-mi/",
      "name": "Suburban Propane",
      "street": "7403 State Rd",
      "city": "Coopersville",
      "state": "MI",
      "zip": "49404",
      "phone": "6168377366",
      "lat": "43.065489",
      "lng": "-85.9710428"
    },
    {
      "source_url": "https://www.suburbanpropane.com/locations/brighton-mi/",
      "name": "Suburban Propane",
      "street": "11879 Grand River Rd",
      "city": "Brighton",
      "state": "MI",
      "zip": "48116",
      "phone": "8102275049",
      "lat": "42.5167366",
      "lng": "-83.7105812"
    },
    {
      "source_url": "https://www.suburbanpropane.com/locations/oxford-mi/",
      "name": "Suburban Propane",
      "street": "3300 N Lapeer Rd",
      "city": "Oxford",
      "state": "MI",
      "zip": "48371",
      "phone": "2486287377",
      "lat": "42.8717982",
      "lng": "-83.2959578"
    },
    {
      "source_url": "https://www.suburbanpropane.com/locations/morenci-mi/",
      "name": "Suburban Propane",
      "street": "9155 W Weston Rd",
      "city": "Morenci",
      "state": "MI",
      "zip": "49256",
      "phone": "5174587107",
      "lat": "41.722914",
      "lng": "-84.195904"
    },
    {
      "source_url": "https://www.suburbanpropane.com/locations/fenton-mi/",
      "name": "Suburban Propane",
      "street": "7119 Old US 23",
      "city": "Fenton",
      "state": "MI",
      "zip": "48430",
      "phone": "8107507101",
      "lat": "42.7110116",
      "lng": "-83.7641268"
    },
    {
      "source_url": "https://www.suburbanpropane.com/locations/gaylord-mi/",
      "name": "Suburban Propane",
      "street": "1144 N Old US Highway 27",
      "city": "Gaylord",
      "state": "MI",
      "zip": "49735",
      "phone": "9897323400",
      "lat": "44.2615735",
      "lng": "-84.7973752"
    },
    {
      "source_url": "https://www.suburbanpropane.com/locations/choctaw-ok/",
      "name": "Suburban Propane",
      "street": "17900 NE 23rd St",
      "city": "Choctaw",
      "state": "OK",
      "zip": "73020",
      "phone": "4053902758",
      "lat": "35.4928548",
      "lng": "-97.2140979"
    },
    {
      "source_url": "https://www.suburbanpropane.com/locations/cortez-co/",
      "name": "Suburban Propane",
      "street": "29107 Highway 160",
      "city": "Cortez",
      "state": "CO",
      "zip": "81321",
      "phone": "9705653514",
      "lat": "37.3484696",
      "lng": "-108.5164029"
    },
    {
      "source_url": "https://www.suburbanpropane.com/locations/farmington-nm/",
      "name": "Suburban Propane",
      "street": "5702 Highway 64",
      "city": "Farmington",
      "state": "NM",
      "zip": "87499",
      "phone": "5053240101",
      "lat": "36.7044199",
      "lng": "-108.1042817"
    },
    {
      "source_url": "https://www.suburbanpropane.com/locations/baytown-tx/",
      "name": "Suburban Propane",
      "street": "10800 IH 10 E",
      "city": "Baytown",
      "state": "TX",
      "zip": "77523",
      "phone": "2813833521",
      "lat": "29.825317",
      "lng": "-94.8547811"
    },
    {
      "source_url": "https://www.suburbanpropane.com/locations/nacogdoches-tx/",
      "name": "Suburban Propane",
      "street": "2026 NW Stallings Dr",
      "city": "Nacogdoches",
      "state": "TX",
      "zip": "75964",
      "phone": "9365602217",
      "lat": "31.6214612",
      "lng": "-94.6827231"
    },
    {
      "source_url": "https://www.suburbanpropane.com/locations/tyler-tx/",
      "name": "Suburban Propane",
      "street": "4209 HWY 64 West",
      "city": "Henderson",
      "state": "TX",
      "zip": "75652",
      "phone": "9035925612",
      "lat": "32.1532156",
      "lng": "-94.7993802"
    },
    {
      "source_url": "https://www.suburbanpropane.com/locations/willis-tx/",
      "name": "Suburban Propane",
      "street": "10070 FM 1097 W",
      "city": "Willis",
      "state": "TX",
      "zip": "77318",
      "phone": "9368566464",
      "lat": "30.4191567",
      "lng": "-95.5043292"
    },
    {
      "source_url": "https://www.suburbanpropane.com/locations/victoria-tx/",
      "name": "Suburban Propane",
      "street": "17812 NW Zac Lentz Pkwy",
      "city": "Victoria",
      "state": "TX",
      "zip": "77905",
      "phone": "3615784111",
      "lat": "28.8123802",
      "lng": "-97.0795892"
    },
    {
      "source_url": "https://www.suburbanpropane.com/locations/austin-tx/",
      "name": "Suburban Propane",
      "street": "2100 Old Airport Road",
      "city": "Georgetown",
      "state": "TX",
      "zip": "78626",
      "phone": "5128368447",
      "lat": "30.6630073",
      "lng": "-97.6694143"
    },
    {
      "source_url": "https://www.suburbanpropane.com/locations/hillsboro-oh-1114/",
      "name": "Suburban Propane",
      "street": "5331 US Highway 50",
      "city": "Hillsboro",
      "state": "OH",
      "zip": "45133",
      "phone": "9373935366",
      "lat": "39.2048493",
      "lng": "-83.6891207"
    },
    {
      "source_url": "https://www.suburbanpropane.com/locations/kenton-oh-1133/",
      "name": "Suburban Propane",
      "street": "19889 State Route 67",
      "city": "Kenton",
      "state": "OH",
      "zip": "43326",
      "phone": "4198122890",
      "lat": "40.686243",
      "lng": "-83.498317"
    },
    {
      "source_url": "https://www.suburbanpropane.com/locations/new-richmond-oh-1161/",
      "name": "Suburban Propane",
      "street": "2792 State Route 132",
      "city": "New Richmond",
      "state": "OH",
      "zip": "45157",
      "phone": "9373921133",
      "lat": "38.9808606",
      "lng": "-84.2405263"
    },
    {
      "source_url": "https://www.suburbanpropane.com/locations/margate-fl/",
      "name": "Suburban Propane",
      "street": "1900 Banks Rd",
      "city": "Margate",
      "state": "FL",
      "zip": "33063",
      "phone": "9549733220",
      "lat": "26.253834",
      "lng": "-80.193865"
    },
    {
      "source_url": "https://www.suburbanpropane.com/locations/washington-nc-3196/",
      "name": "Suburban Propane",
      "street": "8507 US Hwy 264",
      "city": "Washington",
      "state": "NC",
      "zip": "27889",
      "phone": "2527457346",
      "lat": "35.546822",
      "lng": "-77.0520004"
    },
    {
      "source_url": "https://www.suburbanpropane.com/locations/columbus-ms-3258/",
      "name": "Suburban Propane",
      "street": "5234 Military Road",
      "city": "Columbus",
      "state": "MS",
      "zip": "39705",
      "phone": "6623282080",
      "lat": "33.5516627",
      "lng": "-88.3746353"
    },
    {
      "source_url": "https://www.suburbanpropane.com/locations/chesterfield-sc-3246/",
      "name": "Suburban Propane",
      "street": "437 Miller Road",
      "city": "Chesterfield",
      "state": "SC",
      "zip": "29709",
      "phone": "8433462311",
      "lat": "34.739693",
      "lng": "-80.0551868"
    },
    {
      "source_url": "https://www.suburbanpropane.com/locations/alcalde-nm/",
      "name": "Suburban Propane",
      "street": "725 State Road 68",
      "city": "Alcade",
      "state": "NM",
      "zip": "87511",
      "phone": "5054243837",
      "lat": "36.092681",
      "lng": "-106.049097"
    },
    {
      "source_url": "https://www.suburbanpropane.com/locations/yakima-wa/",
      "name": "Suburban Propane",
      "street": "8460 Postma Road",
      "city": "Moxee",
      "state": "WA",
      "zip": "98936",
      "phone": "5095944170",
      "lat": "46.56148",
      "lng": "-120.389147"
    },
    {
      "source_url": "https://www.suburbanpropane.com/locations/savannah-ga/",
      "name": "Suburban Propane",
      "street": "1113 US Hwy 80 E, Suite C",
      "city": "Pooler",
      "state": "GA",
      "zip": "31322",
      "phone": "9123737447",
      "lat": "32.105545",
      "lng": "-81.2290473"
    },
    {
      "source_url": "https://www.suburbanpropane.com/locations/santa-fe-nm/",
      "name": "Suburban Propane",
      "street": "7513 Avenger Way",
      "city": "Santa Fe",
      "state": "NM",
      "zip": "87507",
      "phone": "5054243837",
      "lat": "35.6368708",
      "lng": "-106.0673318"
    },
    {
      "source_url": "https://www.suburbanpropane.com/locations/chino-valley-az/",
      "name": "Suburban Propane",
      "street": "2715 North Highway 89",
      "city": "Chino Valley",
      "state": "AZ",
      "zip": "86323",
      "phone": "9286361313",
      "lat": "34.5450868",
      "lng": "-112.4700793"
    },
    {
      "source_url": "https://www.suburbanpropane.com/locations/royston-ga/",
      "name": "Suburban Propane",
      "street": "66 Brogdon Circle",
      "city": "Royston",
      "state": "GA",
      "zip": "30662",
      "phone": "7062456111",
      "lat": "34.3058132",
      "lng": "-83.1072146"
    },
    {
      "source_url": "https://www.suburbanpropane.com/locations/bayboro-nc/",
      "name": "Suburban Propane",
      "street": "117 Virginia Road",
      "city": "Bayboro",
      "state": "NC",
      "zip": "28515",
      "phone": "2527457346",
      "lat": "35.1436634",
      "lng": "-76.7972825"
    },
    {
      "source_url": "https://www.suburbanpropane.com/locations/rosman-nc-3317/",
      "name": "Suburban Propane",
      "street": "9205 Rosman Highway",
      "city": "Rosman",
      "state": "NC",
      "zip": "28772",
      "phone": "8285473045",
      "lat": "35.139541",
      "lng": "-82.849893"
    },
    {
      "source_url": "https://www.suburbanpropane.com/locations/brevard-nc/",
      "name": "Suburban Propane",
      "street": "1106 Rosman Highway",
      "city": "Brevard",
      "state": "NC",
      "zip": "28712",
      "phone": "8285473045",
      "lat": "35.2170042",
      "lng": "-82.7528767"
    },
    {
      "source_url": "https://www.suburbanpropane.com/locations/fairbanks-ak-3326/",
      "name": "Suburban Propane",
      "street": "210 34TH ST",
      "city": "Fairbanks",
      "state": "AK",
      "zip": "99701",
      "phone": "9074562301",
      "lat": "64.8388243",
      "lng": "-147.7489363"
    },
    {
      "source_url": "https://www.suburbanpropane.com/locations/anchorage-ak-3327/",
      "name": "Suburban Propane",
      "street": "601 E Whitney Rd",
      "city": "Anchorage",
      "state": "AK",
      "zip": "99501",
      "phone": "9074562301",
      "lat": "61.2253193",
      "lng": "-149.8733978"
    },
    {
      "source_url": "https://www.suburbanpropane.com/locations/brattleboro-vt-3331/",
      "name": "Suburban Propane",
      "street": "96 Wellington Rd",
      "city": "Brattleboro",
      "state": "VT",
      "zip": "05301",
      "phone": "8022574515",
      "lat": "42.8871755",
      "lng": "-72.5507066"
    },
    {
      "source_url": "https://www.suburbanpropane.com/locations/portland-or-3329/",
      "name": "Suburban Propane",
      "street": "5901 NE 87th",
      "city": "Portland",
      "state": "OR",
      "zip": "97220",
      "phone": "5036398691",
      "lat": "45.5655148",
      "lng": "-122.574116"
    },
    {
      "source_url": "https://www.suburbanpropane.com/locations/cape-coral-fl/",
      "name": "Suburban Propane",
      "street": "2531 Andalusia Blvd",
      "city": "Cape Coral",
      "state": "FL",
      "zip": "33909",
      "phone": "2395746061",
      "lat": "26.6998042",
      "lng": "-81.9563583"
    },
    {
      "source_url": "https://www.suburbanpropane.com/locations/key-west-fl/",
      "name": "Suburban Propane",
      "street": "726 Catherine St",
      "city": "Key West",
      "state": "FL",
      "zip": "33040",
      "phone": "3052962411",
      "lat": "24.551118",
      "lng": "-81.7944466"
    },
    {
      "source_url": "https://www.suburbanpropane.com/locations/st-augustine-fl/",
      "name": "Suburban Propane",
      "street": "45 S Dixie Hwy",
      "city": "Saint Augustine",
      "state": "FL",
      "zip": "32084",
      "phone": "9048295623",
      "lat": "29.8842383",
      "lng": "-81.3270789"
    },
    {
      "source_url": "https://www.suburbanpropane.com/locations/waynesville-nc/",
      "name": "Suburban Propane",
      "street": "142 Old Howell Mill Rd",
      "city": "Waynesville",
      "state": "NC",
      "zip": "28786",
      "phone": "8282524733",
      "lat": "35.510853",
      "lng": "-82.9700639"
    },
    {
      "source_url": "https://www.suburbanpropane.com/locations/hilton-head-sc/",
      "name": "Suburban Propane",
      "street": "301 William Hilton Pkwy",
      "city": "Hilton Head",
      "state": "SC",
      "zip": "29926",
      "phone": "8436813919",
      "lat": "32.2129845",
      "lng": "-80.727007"
    },
    {
      "source_url": "https://www.suburbanpropane.com/locations/kingstree-sc/",
      "name": "Suburban Propane",
      "street": "96 Dennis Ave",
      "city": "Kingstree",
      "state": "SC",
      "zip": "29556",
      "phone": "8433462311",
      "lat": "33.6897109",
      "lng": "-79.8186654"
    },
    {
      "source_url": "https://www.suburbanpropane.com/locations/hartsville-sc/",
      "name": "Suburban Propane",
      "street": "509 S 5th St",
      "city": "Hartsville",
      "state": "SC",
      "zip": "29550",
      "phone": "8433462311",
      "lat": "34.3697256",
      "lng": "-80.0700591"
    },
    {
      "source_url": "https://www.suburbanpropane.com/locations/myrtle-beach-sc/",
      "name": "Suburban Propane",
      "street": "4692 Highway 17 Byp S",
      "city": "Myrtle Beach",
      "state": "SC",
      "zip": "29588",
      "phone": "8432931535",
      "lat": "33.6805987",
      "lng": "-78.9640794"
    },
    {
      "source_url": "https://www.suburbanpropane.com/locations/wilmington-nc/",
      "name": "Suburban Propane",
      "street": "430 Landmark Dr",
      "city": "Wilmington",
      "state": "NC",
      "zip": "28412",
      "phone": "9107990420",
      "lat": "34.1842042",
      "lng": "-77.9327633"
    },
    {
      "source_url": "https://www.suburbanpropane.com/locations/richmond-va/",
      "name": "Suburban Propane",
      "street": "12801 Old Stage Rd",
      "city": "Chester",
      "state": "VA",
      "zip": "23836",
      "phone": "8047485886",
      "lat": "37.3529804",
      "lng": "-77.396216"
    },
    {
      "source_url": "https://www.suburbanpropane.com/locations/central-pennsylvania-pa/",
      "name": "Suburban Propane",
      "street": "468 S Center St",
      "city": "Ebensburg",
      "state": "PA",
      "zip": "15931",
      "phone": "8144728082",
      "lat": "40.4804034",
      "lng": "-78.7233967"
    },
    {
      "source_url": "https://www.suburbanpropane.com/locations/pleasant-gap-pa/",
      "name": "Suburban Propane",
      "street": "539 E College Ave",
      "city": "Pleasant Gap",
      "state": "PA",
      "zip": "16823",
      "phone": "8143592713",
      "lat": "40.878097828711",
      "lng": "-77.728498930422"
    },
    {
      "source_url": "https://www.suburbanpropane.com/locations/oakland-md/"
    },
    {
      "source_url": "https://www.suburbanpropane.com/locations/fruitland-md/",
      "name": "Suburban Propane",
      "street": "201 N Fruitland Blvd",
      "city": "Fruitland",
      "state": "MD",
      "zip": "21826",
      "phone": "4107497141",
      "lat": "38.3241089",
      "lng": "-75.6178763"
    },
    {
      "source_url": "https://www.suburbanpropane.com/locations/harrison-oh/",
      "name": "Suburban Propane",
      "street": "10112 Harrison Ave",
      "city": "Harrison",
      "state": "OH",
      "zip": "45030",
      "phone": "5133674141",
      "lat": "39.2433527",
      "lng": "-84.777961"
    },
    {
      "source_url": "https://www.suburbanpropane.com/locations/gainesville-va/",
      "name": "Suburban Propane",
      "street": "14111 Daves Store Lane",
      "city": "Gainesville",
      "state": "VA",
      "zip": "20155",
      "phone": "7037544141",
      "lat": "38.7972285",
      "lng": "-77.610875"
    },
    {
      "source_url": "https://www.suburbanpropane.com/locations/hammonton-nj/",
      "name": "Suburban Propane",
      "street": "1124 S White Horse Pike",
      "city": "Hammonton",
      "state": "NJ",
      "zip": "08037",
      "phone": "8564513150",
      "lat": "39.614005",
      "lng": "-74.772124"
    },
    {
      "source_url": "https://www.suburbanpropane.com/locations/dupont-pa/",
      "name": "Suburban Propane",
      "street": "60 Pittston Ave",
      "city": "Yatesville",
      "state": "PA",
      "zip": "18640",
      "phone": "5706542798",
      "lat": "41.3003865",
      "lng": "-75.7793674"
    },
    {
      "source_url": "https://www.suburbanpropane.com/locations/lehigh-valley-pa/",
      "name": "Suburban Propane",
      "street": "714 Nazareth Pike",
      "city": "Nazareth",
      "state": "PA",
      "zip": "18064",
      "phone": "6107590474",
      "lat": "40.7223967",
      "lng": "-75.3178724"
    },
    {
      "source_url": "https://www.suburbanpropane.com/locations/greater-mid-hudson-ny/",
      "name": "Suburban Propane",
      "street": "124 Barbarossa Lane",
      "city": "Kingston",
      "state": "NY",
      "zip": "12401",
      "phone": "8453314957",
      "lat": "41.9423187",
      "lng": "-74.0182897"
    },
    {
      "source_url": "https://www.suburbanpropane.com/locations/south-glens-falls-ny/",
      "name": "Suburban Propane",
      "street": "1480 Route 9",
      "city": "Fort Edward",
      "state": "NY",
      "zip": "12828",
      "phone": "5187932862",
      "lat": "43.2560792",
      "lng": "-73.6612091"
    },
    {
      "source_url": "https://www.suburbanpropane.com/locations/saranac-lake-ny/",
      "name": "Suburban Propane",
      "street": "32 Saint Lawrence St",
      "city": "Saranac Lake",
      "state": "NY",
      "zip": "12983",
      "phone": "5188911515",
      "lat": "44.3334502",
      "lng": "-74.140257"
    },
    {
      "source_url": "https://www.suburbanpropane.com/locations/onley-va/",
      "name": "Suburban Propane",
      "street": "26299 Lankford Hwy",
      "city": "Onley",
      "state": "VA",
      "zip": "23418",
      "phone": "7577871567",
      "lat": "37.6803633",
      "lng": "-75.7223844"
    },
    {
      "source_url": "https://www.suburbanpropane.com/locations/honesdale-pa/",
      "name": "Suburban Propane",
      "street": "3289 Lake Ariel Hwy",
      "city": "Honesdale",
      "state": "PA",
      "zip": "18431",
      "phone": "5702531890",
      "lat": "41.541179",
      "lng": "-75.254241"
    },
    {
      "source_url": "https://www.suburbanpropane.com/locations/augusta-nj/",
      "name": "Suburban Propane",
      "street": "93 Hampton House Rd",
      "city": "Newton",
      "state": "NJ",
      "zip": "07860",
      "phone": "9733831860",
      "lat": "41.0954876",
      "lng": "-74.7327977"
    },
    {
      "source_url": "https://www.suburbanpropane.com/locations/mount-kisco-ny/",
      "name": "Suburban Propane",
      "street": "25 Kensico Dr",
      "city": "Mount Kisco",
      "state": "NY",
      "zip": "10549",
      "phone": "9146665174",
      "lat": "41.2181158",
      "lng": "-73.7234764"
    },
    {
      "source_url": "https://www.suburbanpropane.com/locations/brattleboro-vt/",
      "name": "Suburban Propane",
      "street": "96 Wellington Rd",
      "city": "Brattleboro",
      "state": "VT",
      "zip": "05301",
      "phone": "8022574515",
      "lat": "42.8871755",
      "lng": "-72.5507066"
    },
    {
      "source_url": "https://www.suburbanpropane.com/locations/fort-plain-ny/",
      "name": "Suburban Propane",
      "street": "94 Willett St",
      "city": "Fort Plain",
      "state": "NY",
      "zip": "13339",
      "phone": "5189933433",
      "lat": "42.9363711",
      "lng": "-74.6237794"
    },
    {
      "source_url": "https://www.suburbanpropane.com/locations/cobleskill-ny/",
      "name": "Suburban Propane",
      "street": "968 State Highway Route 7",
      "city": "Cobleskill",
      "state": "NY",
      "zip": "12043",
      "phone": "5182343592",
      "lat": "42.6757097",
      "lng": "-74.4940848"
    },
    {
      "source_url": "https://www.suburbanpropane.com/locations/montpelier-vt/",
      "name": "Suburban Propane",
      "street": "8 Three Mile Bridge Rd",
      "city": "Montpelier",
      "state": "VT",
      "zip": "05602",
      "phone": "8022299167",
      "lat": "44.2604436",
      "lng": "-72.6122444"
    },
    {
      "source_url": "https://www.suburbanpropane.com/locations/grand-gorge-ny/",
      "name": "Suburban Propane",
      "street": "38838 Route 23",
      "city": "Grand Gorge",
      "state": "NY",
      "zip": "12434",
      "phone": "6075887571",
      "lat": "42.353825",
      "lng": "-74.470038"
    },
    {
      "source_url": "https://www.suburbanpropane.com/locations/holland-patent-ny/",
      "name": "Suburban Propane",
      "street": "9607 Powell Rd",
      "city": "Holland Patent",
      "state": "NY",
      "zip": "13354",
      "phone": "3158654111",
      "lat": "43.2390549",
      "lng": "-75.2502076"
    },
    {
      "source_url": "https://www.suburbanpropane.com/locations/walton-ny/",
      "name": "Suburban Propane",
      "street": "28460 State Highway 10",
      "city": "Walton",
      "state": "NY",
      "zip": "13856",
      "phone": "6078654700",
      "lat": "42.156259",
      "lng": "-75.113316"
    },
    {
      "source_url": "https://www.suburbanpropane.com/locations/hudson-ny/",
      "name": "Suburban Propane",
      "street": "90 Industrial Tract",
      "city": "Hudson",
      "state": "NY",
      "zip": "12534",
      "phone": "5188284083",
      "lat": "42.2498592",
      "lng": "-73.7569332"
    },
    {
      "source_url": "https://www.suburbanpropane.com/locations/augusta-me/",
      "name": "Suburban Propane",
      "street": "422 Riverside Dr",
      "city": "Augusta",
      "state": "ME",
      "zip": "04330",
      "phone": "2076223131",
      "lat": "44.3436621",
      "lng": "-69.7539923"
    },
    {
      "source_url": "https://www.suburbanpropane.com/locations/crescent-city-ca/",
      "name": "Suburban Propane",
      "street": "825 Hwy 101 N",
      "city": "Crescent City",
      "state": "CA",
      "zip": "95531",
      "phone": "7074644165",
      "lat": "41.7642785",
      "lng": "-124.1954217"
    },
    {
      "source_url": "https://www.suburbanpropane.com/locations/salt-lake-city-ut/",
      "name": "Suburban Propane",
      "street": "3245 W 2100 S",
      "city": "Salt Lake City",
      "state": "UT",
      "zip": "84119",
      "phone": "8019726674",
      "lat": "40.7257187",
      "lng": "-111.9630172"
    },
    {
      "source_url": "https://www.suburbanpropane.com/locations/denver-co/",
      "name": "Suburban Propane",
      "street": "5725 W 11th Ave",
      "city": "Lakewood",
      "state": "CO",
      "zip": "80214",
      "phone": "3032321273",
      "lat": "39.736132",
      "lng": "-105.0606446"
    },
    {
      "source_url": "https://www.suburbanpropane.com/locations/portland-or/",
      "name": "Suburban Propane",
      "street": "10075 SW Cascade Ave",
      "city": "Tigard",
      "state": "OR",
      "zip": "97223",
      "phone": "5036398691",
      "lat": "45.4469829",
      "lng": "-122.7838751"
    },
    {
      "source_url": "https://www.suburbanpropane.com/locations/twin-falls-id/",
      "name": "Suburban Propane",
      "street": "139 Locust St S",
      "city": "Twin Falls",
      "state": "ID",
      "zip": "83301",
      "phone": "2087334608",
      "lat": "42.5477763",
      "lng": "-114.4550479"
    },
    {
      "source_url": "https://www.suburbanpropane.com/locations/tacoma-wa/",
      "name": "Suburban Propane",
      "street": "18901 Pacific Ave S",
      "city": "Spanaway",
      "state": "WA",
      "zip": "98387",
      "phone": "2538463797",
      "lat": "47.0849487",
      "lng": "-122.4347255"
    },
    {
      "source_url": "https://www.suburbanpropane.com/locations/grass-valley-ca/",
      "name": "Suburban Propane",
      "street": "12575 Charles Drive",
      "city": "Grass Valley",
      "state": "CA",
      "zip": "95945",
      "phone": "5302736113",
      "lat": "39.219399",
      "lng": "-121.0056192"
    },
    {
      "source_url": "https://www.suburbanpropane.com/locations/red-bluff-ca/",
      "name": "Suburban Propane",
      "street": "415 Madison St",
      "city": "Red Bluff",
      "state": "CA",
      "zip": "96080",
      "phone": "5305273232",
      "lat": "40.1735368",
      "lng": "-122.2362071"
    },
    {
      "source_url": "https://www.suburbanpropane.com/locations/afton-wy/",
      "name": "Suburban Propane",
      "street": "571 N Washington St",
      "city": "Afton",
      "state": "WY",
      "zip": "83110",
      "phone": "3078865704",
      "lat": "42.7220772",
      "lng": "-110.9334666"
    },
    {
      "source_url": "https://www.suburbanpropane.com/locations/santa-rosa-ca/",
      "name": "Suburban Propane",
      "street": "12 W College Ave",
      "city": "Santa Rosa",
      "state": "CA",
      "zip": "95401",
      "phone": "7075420833",
      "lat": "38.4456033",
      "lng": "-122.7286479"
    },
    {
      "source_url": "https://www.suburbanpropane.com/locations/scotts-valley-ca/",
      "name": "Suburban Propane",
      "street": "4340 Scotts Valley Dr, Suite B",
      "city": "Scotts Valley",
      "state": "CA",
      "zip": "95066",
      "phone": "8314382004",
      "lat": "37.0458486",
      "lng": "-122.0189669"
    },
    {
      "source_url": "https://www.suburbanpropane.com/locations/san-jose-ca/",
      "name": "Suburban Propane",
      "street": "3105 Monterey Rd",
      "city": "San Jose",
      "state": "CA",
      "zip": "95111",
      "phone": "4082278464",
      "lat": "37.2871881",
      "lng": "-121.8454528"
    },
    {
      "source_url": "https://www.suburbanpropane.com/locations/paso-robles-ca/",
      "name": "Suburban Propane",
      "street": "3455 Theatre Dr",
      "city": "Paso Robles",
      "state": "CA",
      "zip": "93446",
      "phone": "8052381622",
      "lat": "35.5720676",
      "lng": "-120.6993759"
    },
    {
      "source_url": "https://www.suburbanpropane.com/locations/las-vegas-nv/",
      "name": "Suburban Propane",
      "street": "4520 Mitchell St",
      "city": "North Las Vegas",
      "state": "NV",
      "zip": "89081",
      "phone": "7026431738",
      "lat": "36.2434801",
      "lng": "-115.0940682"
    },
    {
      "source_url": "https://www.suburbanpropane.com/locations/sumter-sc/",
      "name": "Suburban Propane",
      "street": "881 E. Liberty Street",
      "city": "Sumter",
      "state": "SC",
      "zip": "29153",
      "phone": "8037752334",
      "lat": "33.9275636",
      "lng": "-80.3108881"
    },
    {
      "source_url": "https://www.suburbanpropane.com/locations/idyllwild-ca/",
      "name": "Suburban Propane",
      "street": "54225 Ridge View Dr",
      "city": "Idyllwild",
      "state": "CA",
      "zip": "92549",
      "phone": "9516593568",
      "lat": "33.7443648",
      "lng": "-116.7142605"
    },
    {
      "source_url": "https://www.suburbanpropane.com/locations/auberry-ca/",
      "name": "Suburban Propane",
      "street": "31822 Auberry Rd",
      "city": "Auberry",
      "state": "CA",
      "zip": "93602",
      "phone": "5595490533",
      "lat": "37.0606757",
      "lng": "-119.494766"
    },
    {
      "source_url": "https://www.suburbanpropane.com/locations/hughesville-pa/",
      "name": "Suburban Propane",
      "street": "1405 Route 405",
      "city": "Hughesville",
      "state": "PA",
      "zip": "17737",
      "phone": "5705845104",
      "lat": "41.2260671",
      "lng": "-76.7388375"
    },
    {
      "source_url": "https://www.suburbanpropane.com/locations/rochester-ny/",
      "name": "Suburban Propane",
      "street": "3325 Chili Ave",
      "city": "Rochester",
      "state": "NY",
      "zip": "14624",
      "phone": "5858893770",
      "lat": "43.101373",
      "lng": "-77.7572334"
    },
    {
      "source_url": "https://www.suburbanpropane.com/locations/st-albans-vt/",
      "name": "Suburban Propane",
      "street": "62 Industrial Park Rd",
      "city": "Saint Albans",
      "state": "VT",
      "zip": "05478",
      "phone": "8025277755",
      "lat": "44.79777",
      "lng": "-73.0950237"
    },
    {
      "source_url": "https://www.suburbanpropane.com/locations/waitsfield-vt/",
      "name": "Suburban Propane",
      "street": "24 Vt Route 17",
      "city": "Waitsfield",
      "state": "VT",
      "zip": "05673",
      "phone": "8028882345",
      "lat": "44.1813596",
      "lng": "-72.8414119"
    },
    {
      "source_url": "https://www.suburbanpropane.com/locations/new-lebanon-ny/",
      "name": "Suburban Propane",
      "street": "14579 Route 22 North",
      "city": "New Lebanon",
      "state": "NY",
      "zip": "12125",
      "phone": "5187947717",
      "lat": "42.4715064",
      "lng": "-73.3861351"
    },
    {
      "source_url": "https://www.suburbanpropane.com/locations/st-albans-vt/",
      "name": "Suburban Propane",
      "street": "62 Industrial Park Rd",
      "city": "Saint Albans",
      "state": "VT",
      "zip": "05478",
      "phone": "8025277755",
      "lat": "44.79777",
      "lng": "-73.0950237"
    },
    {
      "source_url": "https://www.suburbanpropane.com/locations/rochester-ny/",
      "name": "Suburban Propane",
      "street": "3325 Chili Ave",
      "city": "Rochester",
      "state": "NY",
      "zip": "14624",
      "phone": "5858893770",
      "lat": "43.101373",
      "lng": "-77.7572334"
    },
    {
      "source_url": "https://www.suburbanpropane.com/locations/southwest-pennsylvania-pa/",
      "name": "Suburban Propane",
      "street": "1017 Green St",
      "city": "Greensburg",
      "state": "PA",
      "zip": "15601",
      "phone": "7248377305",
      "lat": "40.2895808",
      "lng": "-79.5433304"
    },
    {
      "source_url": "https://www.suburbanpropane.com/locations/shelburne-falls-ma/",
      "name": "Suburban Propane",
      "street": "30 Conway St",
      "city": "Shelburne Falls",
      "state": "MA",
      "zip": "01370",
      "phone": "4137733693",
      "lat": "42.6015213",
      "lng": "-72.7397959"
    },
    {
      "source_url": "https://www.suburbanpropane.com/locations/mt-pocono-pa/",
      "name": "Suburban Propane",
      "street": "2564 Route 940",
      "city": "Pocono Summit",
      "state": "PA",
      "zip": "18346",
      "phone": "5708397191",
      "lat": "41.1113771",
      "lng": "-75.4124847"
    },
    {
      "source_url": "https://www.suburbanpropane.com/locations/levittown-pa/",
      "name": "Suburban Propane",
      "street": "210 Levittown Pkwy",
      "city": "Levittown",
      "state": "PA",
      "zip": "19054",
      "phone": "2159430772",
      "lat": "40.1446182",
      "lng": "-74.8204068"
    },
    {
      "source_url": "https://www.suburbanpropane.com/locations/penn-yan-ny/",
      "name": "Suburban Propane",
      "street": "366 Clinton St",
      "city": "Penn Yan",
      "state": "NY",
      "zip": "14527",
      "phone": "3155362378",
      "lat": "42.6694177",
      "lng": "-77.0408396"
    },
    {
      "source_url": "https://www.suburbanpropane.com/locations/chestertown-ny/",
      "name": "Suburban Propane",
      "street": "12 Knapp Hill Rd",
      "city": "Chestertown",
      "state": "NY",
      "zip": "12817",
      "phone": "5187932862",
      "lat": "43.650772",
      "lng": "-73.833316"
    },
    {
      "source_url": "https://www.suburbanpropane.com/locations/ticonderoga-ny/",
      "name": "Suburban Propane",
      "street": "232 Alexandria Ave",
      "city": "Ticonderoga",
      "state": "NY",
      "zip": "12883",
      "phone": "5189840001",
      "lat": "43.8360583",
      "lng": "-73.4323876"
    },
    {
      "source_url": "https://www.suburbanpropane.com/locations/bryant-pond-me/",
      "name": "Suburban Propane",
      "street": "7 S Main St",
      "city": "Bryant Pond",
      "state": "ME",
      "zip": "04219",
      "phone": "2076652602",
      "lat": "44.3787143",
      "lng": "-70.6453235"
    },
    {
      "source_url": "https://www.suburbanpropane.com/locations/brentwood-nh/",
      "name": "Suburban Propane",
      "street": "440 Route 125",
      "city": "Brentwood",
      "state": "NH",
      "zip": "03833",
      "phone": "6036793366",
      "lat": "43.0155079",
      "lng": "-71.076815"
    },
    {
      "source_url": "https://www.suburbanpropane.com/locations/fryeburg-me/",
      "name": "Suburban Propane",
      "street": "285 Main St",
      "city": "Fryeburg",
      "state": "ME",
      "zip": "04037",
      "phone": "2079352594",
      "lat": "44.0085204",
      "lng": "-70.9879681"
    },
    {
      "source_url": "https://www.suburbanpropane.com/locations/wells-me/",
      "name": "Suburban Propane",
      "street": "570 N Berwick Rd",
      "city": "Wells",
      "state": "ME",
      "zip": "04090",
      "phone": "2076462928",
      "lat": "43.3209309",
      "lng": "-70.6445668"
    },
    {
      "source_url": "https://www.suburbanpropane.com/locations/derby-ct/",
      "name": "Suburban Propane",
      "street": "100 Water Street",
      "city": "Derby",
      "state": "CT",
      "zip": "06418",
      "phone": "2035739808",
      "lat": "41.3232168",
      "lng": "-73.0862043"
    },
    {
      "source_url": "https://www.suburbanpropane.com/locations/addison-ny/",
      "name": "Suburban Propane",
      "street": "8591 State Route 417",
      "city": "Addison",
      "state": "NY",
      "zip": "14801",
      "phone": "6073594111",
      "lat": "42.119013",
      "lng": "-77.213613"
    },
    {
      "source_url": "https://www.suburbanpropane.com/locations/owosso-mi/",
      "name": "Suburban Propane",
      "street": "2080 Corunna Ave",
      "city": "Owosso",
      "state": "MI",
      "zip": "48867",
      "phone": "9897434509",
      "lat": "42.9845822",
      "lng": "-84.1386903"
    },
    {
      "source_url": "https://www.suburbanpropane.com/locations/mount-olive-nc/",
      "name": "Suburban Propane",
      "street": "205 S Breazeale Ave",
      "city": "Mount Olive",
      "state": "NC",
      "zip": "28365",
      "phone": "9104241700",
      "lat": "35.195255",
      "lng": "-78.0709654"
    },
    {
      "source_url": "https://www.suburbanpropane.com/locations/maple-shade-nj/",
      "name": "Suburban Propane",
      "street": "3110 Route 73 N",
      "city": "Maple Shade",
      "state": "NJ",
      "zip": "08052",
      "phone": "8567797400",
      "lat": "39.9716709",
      "lng": "-75.0058012"
    },
    {
      "source_url": "https://www.suburbanpropane.com/locations/south-windsor-ct/",
      "name": "Suburban Propane",
      "street": "195 Commerce Way",
      "city": "South Windsor",
      "state": "CT",
      "zip": "06074",
      "phone": "8605281030",
      "lat": "41.85786",
      "lng": "-72.59215"
    },
    {
      "source_url": "https://www.suburbanpropane.com/locations/addison-al/",
      "name": "Suburban Propane",
      "street": "31399 Highway 278",
      "city": "Addison",
      "state": "AL",
      "zip": "35540",
      "phone": "2567471596",
      "lat": "34.1986937",
      "lng": "-87.1675698"
    },
    {
      "source_url": "https://www.suburbanpropane.com/locations/scotland-neck-nc/",
      "name": "Suburban Propane",
      "street": "822 Main St",
      "city": "Scotland Neck",
      "state": "NC",
      "zip": "27874",
      "phone": "2528263711",
      "lat": "36.1270005",
      "lng": "-77.4232885"
    },
    {
      "source_url": "https://www.suburbanpropane.com/locations/kill-devil-hills-nc/",
      "name": "Suburban Propane",
      "street": "207 W Fresh Pond Dr",
      "city": "Kill Devil Hills",
      "state": "NC",
      "zip": "27948",
      "phone": "2524419560",
      "lat": "35.994291976787",
      "lng": "-75.651054076072"
    },
    {
      "source_url": "https://www.suburbanpropane.com/locations/fairmont-nc/",
      "name": "Suburban Propane",
      "street": "101 Market St",
      "city": "Fairmont",
      "state": "NC",
      "zip": "28340",
      "phone": "9104241700",
      "lat": "34.4989404",
      "lng": "-79.1137045"
    },
    {
      "source_url": "https://www.suburbanpropane.com/locations/washington-nc/",
      "name": "Suburban Propane",
      "street": "613 Grimes Rd",
      "city": "Washington",
      "state": "NC",
      "zip": "27889",
      "phone": "2527457346",
      "lat": "35.5636061",
      "lng": "-77.0764915"
    },
    {
      "source_url": "https://www.suburbanpropane.com/locations/christiansburg-va/",
      "name": "Suburban Propane",
      "street": "225 Cambria St NW",
      "city": "Christiansburg",
      "state": "VA",
      "zip": "24073",
      "phone": "5407777928",
      "lat": "37.153138",
      "lng": "-80.4202431"
    },
    {
      "source_url": "https://www.suburbanpropane.com/locations/albion-pa/",
      "name": "Suburban Propane",
      "street": "9680 Route 6n",
      "city": "Albion",
      "state": "PA",
      "zip": "16401",
      "phone": "8147565257",
      "lat": "41.879905",
      "lng": "-80.3134982"
    },
    {
      "source_url": "https://www.suburbanpropane.com/locations/newport-nc/",
      "name": "Suburban Propane",
      "street": "250 Arthur Farm Rd",
      "city": "Newport",
      "state": "NC",
      "zip": "28557",
      "phone": "2526335560",
      "lat": "34.7447501",
      "lng": "-76.8108698"
    },
    {
      "source_url": "https://www.suburbanpropane.com/locations/hope-mills-nc/",
      "name": "Suburban Propane",
      "street": "3600 Legion Rd",
      "city": "Hope Mills",
      "state": "NC",
      "zip": "28348",
      "phone": "9104241700",
      "lat": "34.9934449",
      "lng": "-78.9231225"
    },
    {
      "source_url": "https://www.suburbanpropane.com/locations/hamilton-ga/",
      "name": "Suburban Propane",
      "street": "761 Carver Cir",
      "city": "Hamilton",
      "state": "GA",
      "zip": "31811",
      "phone": "7622003211",
      "lat": "32.7633039",
      "lng": "-84.8758073"
    },
    {
      "source_url": "https://www.suburbanpropane.com/locations/high-springs-fl/",
      "name": "Suburban Propane",
      "street": "17460 High Springs Main St",
      "city": "High Springs",
      "state": "FL",
      "zip": "32643",
      "phone": "3864543690",
      "lat": "29.8158297",
      "lng": "-82.6049548"
    },
    {
      "source_url": "https://www.suburbanpropane.com/locations/bell-buckle-tn/",
      "name": "Suburban Propane",
      "street": "114 Highway 82 E",
      "city": "Bell Buckle",
      "state": "TN",
      "zip": "37020",
      "phone": "9316847337",
      "lat": "11.1271225",
      "lng": "78.6568942"
    },
    {
      "source_url": "https://www.suburbanpropane.com/locations/philadelphia-ms/",
      "name": "Suburban Propane",
      "street": "278 W Beacon St",
      "city": "Philadelphia",
      "state": "MS",
      "zip": "39350",
      "phone": "6016562562",
      "lat": "32.771281",
      "lng": "-89.120905"
    },
    {
      "source_url": "https://www.suburbanpropane.com/locations/fayette-al/",
      "name": "Suburban Propane",
      "street": "801 Columbus St E",
      "city": "Fayette",
      "state": "AL",
      "zip": "35555",
      "phone": "2059324496",
      "lat": "33.6844261",
      "lng": "-87.8215271"
    },
    {
      "source_url": "https://www.suburbanpropane.com/locations/union-springs-al/",
      "name": "Suburban Propane",
      "street": "1414 Peachburg Rd",
      "city": "Union Springs",
      "state": "AL",
      "zip": "36089",
      "phone": "3347383050",
      "lat": "32.1550365",
      "lng": "-85.6902135"
    },
    {
      "source_url": "https://www.suburbanpropane.com/locations/luverne-al/",
      "name": "Suburban Propane",
      "street": "799 S Forest Ave",
      "city": "Luverne",
      "state": "AL",
      "zip": "36049",
      "phone": "3343353356",
      "lat": "31.704579",
      "lng": "-86.2639688"
    },
    {
      "source_url": "https://www.suburbanpropane.com/locations/selma-al/",
      "name": "Suburban Propane",
      "street": "3474 US Highway 80 W",
      "city": "Selma",
      "state": "AL",
      "zip": "36701",
      "phone": "3348746574",
      "lat": "32.4357732",
      "lng": "-87.0780935"
    },
    {
      "source_url": "https://www.suburbanpropane.com/locations/brent-al/",
      "name": "Suburban Propane",
      "street": "310 West Pushmataha Street",
      "city": "Brent",
      "state": "AL",
      "zip": "36904",
      "phone": "2054592949",
      "lat": "32.0896925",
      "lng": "-88.2247791"
    },
    {
      "source_url": "https://www.suburbanpropane.com/locations/albertville-al/",
      "name": "Suburban Propane",
      "street": "2433 Thomason Rd",
      "city": "Albertville",
      "state": "AL",
      "zip": "35951",
      "phone": "2568911530",
      "lat": "34.2900452",
      "lng": "-86.170967"
    },
    {
      "source_url": "https://www.suburbanpropane.com/locations/hartselle-al/",
      "name": "Suburban Propane",
      "street": "1710 Highway 31 SW",
      "city": "Hartselle",
      "state": "AL",
      "zip": "35640",
      "phone": "2567735417",
      "lat": "34.4274862",
      "lng": "-86.9305752"
    },
    {
      "source_url": "https://www.suburbanpropane.com/locations/russellville-al/",
      "name": "Suburban Propane",
      "street": "13165 South Highway 43",
      "city": "Russellville",
      "state": "AL",
      "zip": "35653",
      "phone": "2563322182",
      "lat": "34.4881365",
      "lng": "-87.7336717"
    },
    {
      "source_url": "https://www.suburbanpropane.com/locations/montgomery-al/",
      "name": "Suburban Propane",
      "street": "8475 Selma Hwy",
      "city": "Montgomery",
      "state": "AL",
      "zip": "36108",
      "phone": "3342812750",
      "lat": "32.2930326",
      "lng": "-86.454367"
    },
    {
      "source_url": "https://www.suburbanpropane.com/locations/breckenridge-mi/",
      "name": "Suburban Propane",
      "street": "7489 E Monroe Rd",
      "city": "Breckenridge",
      "state": "MI",
      "zip": "48615",
      "phone": "9898423575",
      "lat": "43.408764",
      "lng": "-84.460564"
    },
    {
      "source_url": "https://www.suburbanpropane.com/locations/muskegon-mi/",
      "name": "Suburban Propane",
      "street": "1535 S Walker Rd",
      "city": "Muskegon",
      "state": "MI",
      "zip": "49442",
      "phone": "2317733261",
      "lat": "43.2244757",
      "lng": "-86.1748156"
    },
    {
      "source_url": "https://www.suburbanpropane.com/locations/mondovi-wi/",
      "name": "Suburban Propane",
      "street": "998 E Main St",
      "city": "Mondovi",
      "state": "WI",
      "zip": "54755",
      "phone": "7159264271",
      "lat": "44.571192",
      "lng": "-91.650842"
    },
    {
      "source_url": "https://www.suburbanpropane.com/locations/mauston-wi/",
      "name": "Suburban Propane",
      "street": "N5471 Hwy. 12 & 16",
      "city": "Mauston",
      "state": "WI",
      "zip": "53948",
      "phone": "6088476019",
      "lat": "43.8387517",
      "lng": "-90.1215616"
    },
    {
      "source_url": "https://www.suburbanpropane.com/locations/kenton-oh/",
      "name": "Suburban Propane",
      "street": "12958 US Highway 68",
      "city": "Kenton",
      "state": "OH",
      "zip": "43326",
      "phone": "4198122890",
      "lat": "40.631654",
      "lng": "-83.6143869"
    },
    {
      "source_url": "https://www.suburbanpropane.com/locations/dover-oh/",
      "name": "Suburban Propane",
      "street": "2141 Progress St",
      "city": "Dover",
      "state": "OH",
      "zip": "44622",
      "phone": "3306024471",
      "lat": "40.5364954",
      "lng": "-81.4966431"
    },
    {
      "source_url": "https://www.suburbanpropane.com/locations/decatur-in/",
      "name": "Suburban Propane",
      "street": "1024 E US Highway 224",
      "city": "Decatur",
      "state": "IN",
      "zip": "46733",
      "phone": "2607243716",
      "lat": "40.8399332",
      "lng": "-84.9051914"
    },
    {
      "source_url": "https://www.suburbanpropane.com/locations/warren-in/",
      "name": "Suburban Propane",
      "street": "1205 Huntington Ave",
      "city": "Warren",
      "state": "IN",
      "zip": "46792",
      "phone": "2603753565",
      "lat": "40.6916713",
      "lng": "-85.429598"
    },
    {
      "source_url": "https://www.suburbanpropane.com/locations/bloomfield-in/",
      "name": "Suburban Propane",
      "street": "3871 W State Road 54",
      "city": "Bloomfield",
      "state": "IN",
      "zip": "47424",
      "phone": "8126593531",
      "lat": "39.031642",
      "lng": "-87.0138109"
    },
    {
      "source_url": "https://www.suburbanpropane.com/locations/mt-vernon-oh/",
      "name": "Suburban Propane",
      "street": "8040 Newark Rd",
      "city": "Mount Vernon",
      "state": "OH",
      "zip": "43050",
      "phone": "7403926986",
      "lat": "40.3518076",
      "lng": "-82.473286"
    },
    {
      "source_url": "https://www.suburbanpropane.com/locations/crystal-lake-il/",
      "name": "Suburban Propane",
      "street": "4010 US Highway 14",
      "city": "Crystal Lake",
      "state": "IL",
      "zip": "60014",
      "phone": "8154590909",
      "lat": "42.2263078",
      "lng": "-88.2764924"
    },
    {
      "source_url": "https://www.suburbanpropane.com/locations/west-salem-wi/",
      "name": "Suburban Propane",
      "street": "610 West City Hwy 16",
      "city": "West Salem",
      "state": "WI",
      "zip": "54669",
      "phone": "6087818070",
      "lat": "43.7844397",
      "lng": "-88.7878678"
    },
    {
      "source_url": "https://www.suburbanpropane.com/locations/stockbridge-mi/",
      "name": "Suburban Propane",
      "street": "13400 Territorial Rd",
      "city": "Stockbridge",
      "state": "MI",
      "zip": "49285",
      "phone": "5178517577",
      "lat": "42.419596",
      "lng": "-84.164158"
    },
    {
      "source_url": "https://www.suburbanpropane.com/locations/petoskey-mi/",
      "name": "Suburban Propane",
      "street": "2090 Fochtman Industrial Dr",
      "city": "Petoskey",
      "state": "MI",
      "zip": "49770",
      "phone": "2313479045",
      "lat": "45.400284",
      "lng": "-84.876622"
    },
    {
      "source_url": "https://www.suburbanpropane.com/locations/alpena-mi/",
      "name": "Suburban Propane",
      "street": "3761 US Highway 23 N",
      "city": "Alpena",
      "state": "MI",
      "zip": "49707",
      "phone": "9893568401",
      "lat": "44.3148443",
      "lng": "-85.6023643"
    },
    {
      "source_url": "https://www.suburbanpropane.com/locations/fort-worth-tx/",
      "name": "Suburban Propane",
      "street": "5620 Jacksboro Highway",
      "city": "Fort Worth",
      "state": "TX",
      "zip": "76114",
      "phone": "8176248991",
      "lat": "32.8002782",
      "lng": "-97.4059251"
    },
    {
      "source_url": "https://www.suburbanpropane.com/locations/battle-ground-wa/",
      "name": "Suburban Propane",
      "street": "620 SE Eaton Blvd",
      "city": "Battle Ground",
      "state": "WA",
      "zip": "98604",
      "phone": "3606668600",
      "lat": "45.7667783",
      "lng": "-122.5301623"
    },
    {
      "source_url": "https://www.suburbanpropane.com/locations/lake-stevens-wa/",
      "name": "Suburban Propane",
      "street": "2317 N Machias Rd",
      "city": "Lake Stevens",
      "state": "WA",
      "zip": "98258",
      "phone": "4253348808",
      "lat": "48.0177846",
      "lng": "-122.0509221"
    },
    {
      "source_url": "https://www.suburbanpropane.com/locations/los-lunas-nm/",
      "name": "Suburban Propane",
      "street": "3163 New Mexico HWY 47",
      "city": "Los Lunas",
      "state": "NM",
      "zip": "87031",
      "phone": "5058650300",
      "lat": "34.7990026",
      "lng": "-106.7008405"
    },
    {
      "source_url": "https://www.suburbanpropane.com/locations/el-mirage-az/",
      "name": "Suburban Propane",
      "street": "8552 N Dysart Rd",
      "city": "El Mirage",
      "state": "AZ",
      "zip": "85335",
      "phone": "6239353300",
      "lat": "33.5616419",
      "lng": "-112.3430289"
    },
    {
      "source_url": "https://www.suburbanpropane.com/locations/buckland-ma/",
      "name": "Suburban Propane",
      "street": "30 Conway Street",
      "city": "Bucland",
      "state": "MA",
      "zip": "01338",
      "phone": "4137733693",
      "lat": "42.5846501",
      "lng": "-72.8101887"
    },
    {
      "source_url": "https://www.suburbanpropane.com/locations/indiantown-fl/",
      "name": "Suburban Propane",
      "street": "16600 SE Warfield Boulevard",
      "city": "Indiantown",
      "state": "FL",
      "zip": "34956",
      "phone": "7725972168",
      "lat": "27.0289448",
      "lng": "-80.4800359"
    },
    {
      "source_url": "https://www.suburbanpropane.com/locations/key-largo-fl/",
      "name": "Suburban Propane",
      "street": "105700 Overseas Hwy",
      "city": "Key Largo",
      "state": "FL",
      "zip": "33037",
      "phone": "3052962411",
      "lat": "25.1640833",
      "lng": "-80.3807184"
    },
    {
      "source_url": "https://www.suburbanpropane.com/locations/kingman-az/",
      "name": "Suburban Propane",
      "street": "3287 S. Frontage Rd.",
      "city": "Kingman",
      "state": "AZ",
      "zip": "86402",
      "phone": "9286695597",
      "lat": "35.1959089",
      "lng": "-114.0336385"
    },
    {
      "source_url": "https://www.suburbanpropane.com/locations/portland-me/",
      "name": "Suburban Propane",
      "street": "624 Riverside Street",
      "city": "Portland",
      "state": "ME",
      "zip": "04103",
      "phone": "2077740387",
      "lat": "43.6970672",
      "lng": "-70.3261718"
    },
    {
      "source_url": "https://www.suburbanpropane.com/locations/westport-ny/",
      "name": "Suburban Propane",
      "street": "6 Champlain Ave",
      "city": "Westport",
      "state": "NY",
      "zip": "12993",
      "phone": "5189622328",
      "lat": "44.1846176",
      "lng": "-73.4352132"
    },
    {
      "source_url": "https://www.suburbanpropane.com/locations/elberton-ga/",
      "name": "Suburban Propane",
      "street": "1126 Old Middleton Road",
      "city": "Elberton",
      "state": "GA",
      "zip": "30635",
      "phone": "7062456111",
      "lat": "34.0994792",
      "lng": "-82.8390921"
    },
    {
      "source_url": "https://www.suburbanpropane.com/locations/spokane-valley-wa/",
      "name": "Suburban Propane",
      "street": "1005 N Fancher Rd",
      "city": "Spokane Valley",
      "state": "WA",
      "zip": "99212",
      "phone": "5092137108",
      "lat": "47.666359",
      "lng": "-117.326246"
    },
    {
      "source_url": "https://www.suburbanpropane.com/locations/helena-mt/",
      "name": "Suburban Propane",
      "street": "19 HYDRAULIC LANE",
      "city": "MONTANA CITY",
      "state": "MT",
      "zip": "59634",
      "phone": "4069163004",
      "lat": "46.439645",
      "lng": "-112.0107769"
    },
    {
      "source_url": "https://www.suburbanpropane.com/locations/lexington-ga/",
      "name": "Suburban Propane",
      "street": "756 Athens Highway",
      "city": "Lexington",
      "state": "GA",
      "zip": "30648",
      "phone": "7062456111",
      "lat": "33.8850811",
      "lng": "-83.1245005"
    },
    {
      "source_url": "https://www.suburbanpropane.com/locations/anderson-sc/",
      "name": "Suburban Propane",
      "street": "204 Chapman Rd",
      "city": "Anderson",
      "state": "SC",
      "zip": "29625",
      "phone": "8642693081",
      "lat": "34.5801999",
      "lng": "-82.745124"
    },
    {
      "source_url": "https://www.suburbanpropane.com/locations/winamac-in/",
      "name": "Suburban Propane",
      "street": "2752 S US Highway 35",
      "city": "Winamac",
      "state": "IN",
      "zip": "46996",
      "phone": "2606729710",
      "lat": "41.0762792",
      "lng": "-86.6034767"
    },
    {
      "source_url": "https://www.suburbanpropane.com/locations/laurens-sc/",
      "name": "Suburban Propane",
      "street": "2689 Hwy 221 South",
      "city": "Laurens",
      "state": "SC",
      "zip": "29360",
      "phone": "8642693081",
      "lat": "34.4685379",
      "lng": "-82.0345623"
    },
    {
      "source_url": "https://www.suburbanpropane.com/locations/wilmington-vt-3332/",
      "name": "Suburban Propane",
      "street": "4 Mill ST",
      "city": "Wilmington",
      "state": "VT",
      "zip": "05363",
      "phone": "8024641520",
      "lat": "42.8683848",
      "lng": "-72.8747401"
    },
    {
      "source_url": "https://www.suburbanpropane.com/locations/remington-in/",
      "name": "Suburban Propane",
      "street": "6459 US 24 W",
      "city": "Remington",
      "state": "IN",
      "zip": "47977",
      "phone": "2606729710",
      "lat": "40.765528",
      "lng": "-87.1664015"
    },
    {
      "source_url": "https://www.suburbanpropane.com/locations/angel-fire-nm/",
      "name": "Suburban Propane",
      "street": "19 Agua Road",
      "city": "Angel Fire",
      "state": "NM",
      "zip": "87710",
      "phone": "5753773744",
      "lat": "36.4208155",
      "lng": "-105.2992024"
    },
    {
      "source_url": "https://www.suburbanpropane.com/locations/quimby-sc/",
      "name": "Suburban Propane",
      "street": "128 E Ashby Rd",
      "city": "Quimby",
      "state": "SC",
      "zip": "29506",
      "phone": "8433462311",
      "lat": "34.2285929",
      "lng": "-79.7548394"
    },
    {
      "source_url": "https://www.suburbanpropane.com/locations/port-richey-fl/",
      "name": "Suburban Propane",
      "street": "13030 US Highway 19",
      "city": "Hudson",
      "state": "FL",
      "zip": "34667",
      "phone": "7278682115",
      "lat": "28.3467833",
      "lng": "-82.69848"
    },
    {
      "source_url": "https://www.suburbanpropane.com/locations/newberry-sc/",
      "name": "Suburban Propane",
      "street": "1500 Bodie St",
      "city": "Newberry",
      "state": "SC",
      "zip": "29108",
      "phone": "8033458945",
      "lat": "34.2939647",
      "lng": "-81.6245134"
    },
    {
      "source_url": "https://www.suburbanpropane.com/locations/palatka-fl/",
      "name": "Suburban Propane",
      "street": "420 Reid Street",
      "city": "Palatka",
      "state": "FL",
      "zip": "32177",
      "phone": "9048295623",
      "lat": "29.6481957",
      "lng": "-81.6325607"
    },
    {
      "source_url": "https://www.suburbanpropane.com/locations/marion-nc/",
      "name": "Suburban Propane",
      "street": "1876 East Court St",
      "city": "Marion",
      "state": "NC",
      "zip": "28752",
      "phone": "8282524733",
      "lat": "35.697502",
      "lng": "-81.9815837"
    },
    {
      "source_url": "https://www.suburbanpropane.com/locations/atlanta-ga/",
      "name": "Suburban Propane",
      "street": "24 Peachtree St",
      "city": "Cartersville",
      "state": "GA",
      "zip": "30120",
      "phone": "7706070603",
      "lat": "34.1562034",
      "lng": "-84.7874821"
    },
    {
      "source_url": "https://www.suburbanpropane.com/locations/knoxville-tn/",
      "name": "Suburban Propane",
      "street": "1748 Transport Ln",
      "city": "Knoxville",
      "state": "TN",
      "zip": "37924",
      "phone": "4237455143",
      "lat": "36.0305033",
      "lng": "-83.8451836"
    },
    {
      "source_url": "https://www.suburbanpropane.com/locations/shelby-nc/",
      "name": "Suburban Propane",
      "street": "1880 E Dixon Blvd",
      "city": "Shelby",
      "state": "NC",
      "zip": "28152",
      "phone": "7043751721",
      "lat": "35.2694182",
      "lng": "-81.4904275"
    },
    {
      "source_url": "https://www.suburbanpropane.com/locations/summerville-sc/",
      "name": "Suburban Propane",
      "street": "300 E 2nd North St",
      "city": "Summerville",
      "state": "SC",
      "zip": "29483",
      "phone": "8433104306",
      "lat": "33.0207865",
      "lng": "-80.1696587"
    },
    {
      "source_url": "https://www.suburbanpropane.com/locations/orangeburg-sc/",
      "name": "Suburban Propane",
      "street": "2556 Russell St",
      "city": "Orangeburg",
      "state": "SC",
      "zip": "29115",
      "phone": "8033458945",
      "lat": "33.500667",
      "lng": "-80.8316993"
    },
    {
      "source_url": "https://www.suburbanpropane.com/locations/bunnell-fl/",
      "name": "Suburban Propane",
      "street": "605 S State St",
      "city": "Bunnell",
      "state": "FL",
      "zip": "32110",
      "phone": "9048295623",
      "lat": "29.4618743",
      "lng": "-81.2530572"
    },
    {
      "source_url": "https://www.suburbanpropane.com/locations/lakeland-fl/",
      "name": "Suburban Propane",
      "street": "1035 Triangle Street",
      "city": "Lakeland",
      "state": "FL",
      "zip": "33815",
      "phone": "8136264157",
      "lat": "28.056401",
      "lng": "-81.97336"
    },
    {
      "source_url": "https://www.suburbanpropane.com/locations/homosassa-springs-fl/",
      "name": "Suburban Propane",
      "street": "6474 Tex Point",
      "city": "Homosassa",
      "state": "FL",
      "zip": "34446",
      "phone": "3527482101",
      "lat": "28.7680246",
      "lng": "-82.5580266"
    },
    {
      "source_url": "https://www.suburbanpropane.com/locations/chesterfield-sc/",
      "name": "Suburban Propane",
      "street": "1220 East Blvd",
      "city": "Chesterfield",
      "state": "SC",
      "zip": "29709",
      "phone": "8433462311",
      "lat": "34.7303114",
      "lng": "-80.0470424"
    },
    {
      "source_url": "https://www.suburbanpropane.com/locations/paducah-ky/",
      "name": "Suburban Propane",
      "street": "1101 North HC Mathis Dr",
      "city": "Paducah",
      "state": "KY",
      "zip": "42001",
      "phone": "2704434537",
      "lat": "37.0946888",
      "lng": "-88.6314738"
    },
    {
      "source_url": "https://www.suburbanpropane.com/locations/rock-hill-sc/",
      "name": "Suburban Propane",
      "street": "1430 E Main St",
      "city": "Rock Hill",
      "state": "SC",
      "zip": "29730",
      "phone": "7043751721",
      "lat": "34.9173235",
      "lng": "-80.9980928"
    },
    {
      "source_url": "https://www.suburbanpropane.com/locations/lawrenceburg-tn/",
      "name": "Suburban Propane",
      "street": "2360 Highway 43 S",
      "city": "Leoma",
      "state": "TN",
      "zip": "38468",
      "phone": "9318522396",
      "lat": "35.1115331",
      "lng": "-87.4035198"
    },
    {
      "source_url": "https://www.suburbanpropane.com/locations/hopkinsville-ky/",
      "name": "Suburban Propane",
      "street": "3223 Russellville Highway",
      "city": "Hopkinsville",
      "state": "KY",
      "zip": "42240",
      "phone": "2708865211",
      "lat": "36.861049",
      "lng": "-87.438751"
    },
    {
      "source_url": "https://www.suburbanpropane.com/locations/cookeville-tn/",
      "name": "Suburban Propane",
      "street": "501 North Mahler Ave",
      "city": "Cookeville",
      "state": "TN",
      "zip": "38501",
      "phone": "9315267305",
      "lat": "36.1692993",
      "lng": "-85.5042059"
    },
    {
      "source_url": "https://www.suburbanpropane.com/locations/paris-tn/",
      "name": "Suburban Propane",
      "street": "665 Spruce St",
      "city": "Paris",
      "state": "TN",
      "zip": "38242",
      "phone": "7316425781",
      "lat": "36.288927",
      "lng": "-88.3164819"
    },
    {
      "source_url": "https://www.suburbanpropane.com/locations/dillon-sc/",
      "name": "Suburban Propane",
      "street": "1348 Old Latta Hwy",
      "city": "Dillon",
      "state": "SC",
      "zip": "29536",
      "phone": "8047488267",
      "lat": "34.3984208",
      "lng": "-79.3880288"
    },
    {
      "source_url": "https://www.suburbanpropane.com/locations/bennettsville-sc/",
      "name": "Suburban Propane",
      "street": "300 S Parsonage St",
      "city": "Bennettsville",
      "state": "SC",
      "zip": "29512",
      "phone": "8433462311",
      "lat": "34.612901",
      "lng": "-79.678969"
    },
    {
      "source_url": "https://www.suburbanpropane.com/locations/hopkinsville-ky/",
      "name": "Suburban Propane",
      "street": "3223 Russellville Highway",
      "city": "Hopkinsville",
      "state": "KY",
      "zip": "42240",
      "phone": "2708865211",
      "lat": "36.861049",
      "lng": "-87.438751"
    },
    {
      "source_url": "https://www.suburbanpropane.com/locations/lawrenceburg-tn/",
      "name": "Suburban Propane",
      "street": "2360 Highway 43 S",
      "city": "Leoma",
      "state": "TN",
      "zip": "38468",
      "phone": "9318522396",
      "lat": "35.1115331",
      "lng": "-87.4035198"
    },
    {
      "source_url": "https://www.suburbanpropane.com/locations/forest-hill-md/",
      "name": "Suburban Propane",
      "street": "205 E Jarrettsville Rd",
      "city": "Forest Hill",
      "state": "MD",
      "zip": "21050",
      "phone": "4108380015",
      "lat": "39.5803702",
      "lng": "-76.373722"
    },
    {
      "source_url": "https://www.suburbanpropane.com/locations/boone-nc/",
      "name": "Suburban Propane",
      "street": "224 Boone Docks St",
      "city": "Boone",
      "state": "NC",
      "zip": "28607",
      "phone": "8282649088",
      "lat": "36.2014506",
      "lng": "-81.6665363"
    },
    {
      "source_url": "https://www.suburbanpropane.com/locations/winston-salem-nc/",
      "name": "Suburban Propane",
      "street": "3100 N Liberty St",
      "city": "Winston Salem",
      "state": "NC",
      "zip": "27105",
      "phone": "3366797000",
      "lat": "36.1294214",
      "lng": "-80.2327573"
    },
    {
      "source_url": "https://www.suburbanpropane.com/locations/portsmouth-va/",
      "name": "Suburban Propane",
      "street": "5202 George Washington Hwy",
      "city": "Portsmouth",
      "state": "VA",
      "zip": "23702",
      "phone": "7574873411",
      "lat": "36.793072",
      "lng": "-76.3303765"
    },
    {
      "source_url": "https://www.suburbanpropane.com/locations/albemarle-nc/",
      "name": "Suburban Propane",
      "street": "2524 Idlewood Dr",
      "city": "Albemarle",
      "state": "NC",
      "zip": "28001",
      "phone": "7043751721",
      "lat": "35.3982285",
      "lng": "-80.2027933"
    },
    {
      "source_url": "https://www.suburbanpropane.com/locations/richlands-va/",
      "name": "Suburban Propane",
      "street": "1400 Jewell St",
      "city": "Richlands",
      "state": "VA",
      "zip": "24641",
      "phone": "2766794422",
      "lat": "37.091195",
      "lng": "-81.79934"
    },
    {
      "source_url": "https://www.suburbanpropane.com/locations/hickory-nc/",
      "name": "Suburban Propane",
      "street": "3110 Highland Ave NE",
      "city": "Hickory",
      "state": "NC",
      "zip": "28601",
      "phone": "7043751721",
      "lat": "35.727676",
      "lng": "-81.273073"
    },
    {
      "source_url": "https://www.suburbanpropane.com/locations/granite-quarry-nc/",
      "name": "Suburban Propane",
      "street": "905 S Main St",
      "city": "Granite Quarry",
      "state": "NC",
      "zip": "28146",
      "phone": "7043751721",
      "lat": "35.6035947",
      "lng": "-80.4365314"
    },
    {
      "source_url": "https://www.suburbanpropane.com/locations/galax-va/",
      "name": "Suburban Propane",
      "street": "405 S Railroad Ave",
      "city": "Galax",
      "state": "VA",
      "zip": "24333",
      "phone": "2766794422",
      "lat": "36.6795815",
      "lng": "-80.8971149"
    },
    {
      "source_url": "https://www.suburbanpropane.com/locations/williamsburg-va/",
      "name": "Suburban Propane",
      "street": "7232 Merrimac Trl",
      "city": "Williamsburg",
      "state": "VA",
      "zip": "23185",
      "phone": "7572295777",
      "lat": "37.2591829",
      "lng": "-76.6699896"
    },
    {
      "source_url": "https://www.suburbanpropane.com/locations/wytheville-va/",
      "name": "Suburban Propane",
      "street": "290 Cassell Rd",
      "city": "Wytheville",
      "state": "VA",
      "zip": "24382",
      "phone": "2766794422",
      "lat": "36.9531464",
      "lng": "-81.0663454"
    },
    {
      "source_url": "https://www.suburbanpropane.com/locations/marion-va/",
      "name": "Suburban Propane",
      "street": "257 Browns Subdivision Rd",
      "city": "Marion",
      "state": "VA",
      "zip": "24354",
      "phone": "2766794422",
      "lat": "36.8133996",
      "lng": "-81.5810315"
    },
    {
      "source_url": "https://www.suburbanpropane.com/locations/centreville-md/",
      "name": "Suburban Propane",
      "street": "423 Railroad Avenue",
      "city": "Centreville",
      "state": "MD",
      "zip": "21617",
      "phone": "4107581200",
      "lat": "39.041953",
      "lng": "-76.060381"
    },